LAT,LNG,ID,NOMBRE,CALLE,ALTURA,PISO_DEPTO,DIRECCION_NORMALIZADA,BARRIO,COMUNA,CP,CPA,DIAS_Y_HORARIO,TELEFONOS,EMAIL,WEB,ACTIVIDAD,OTRAS_ACTIDADES,DEPENDENCIA,PUBLICO,SECTOR
-34.60917253,-58.38429726,192,36 BILLARES,DE MAYO AV.,1265,,DE MAYO AV. 1265,MONSERRAT,COMUNA 01,1085,C1085ABC,,4381-5696,INFO@LOS36BILLARES.COM.AR,WWW.LOS36BILLARES.COM.AR,BAR NOTABLE,,,GENERAL,PRIVADO
-34.5968166,-58.3835589,1467,ABM,"ALVEAR, MARCELO T. DE",1155,,"ALVEAR, MARCELO T. DE 1155",RETIRO,COMUNA 01,1058,C1058AAQ,LUNES A VIERNES DE 9 A 22,4816-1314 / 1644,INFO@ABM.EDU.AR,WWW.ABM.EDU.AR,ESPACIO DE FORMACION (SEMINARIOS Y TALLERES),,,GENERAL,PRIVADO
-34.60984805,-58.37073924,1788,ACADEMIA NACIONAL DE LA HISTORIA DE LA REPUBLICA ARGENTINA,BALCARCE,139,,BALCARCE 139,MONSERRAT,COMUNA 01,1064,C1064AAC,,343-4416 // 4331-4633 // 4331-5147,,WWW.AN-HISTORIA.ORG.AR,MUSEO,,,GENERAL,ONG
-34.61862787,-58.38547144,296,ACADEMIA PORTEÑA DEL LUNFARDO,ESTADOS UNIDOS,1379,,ESTADOS UNIDOS 1379,CONSTITUCION,COMUNA 01,1101,C1101ABA,LUNES A VIERNES DE 14:00 A 19:00,4383-2393,OLIVIERIEDITOR@HOTMAIL.COM,HTTP://WWW.TODOTANGO.COM/ALUNFARDO/,ESPACIO DE FORMACION (SEMINARIOS Y TALLERES),,,GENERAL,ONG
-34.61132089,-58.372772,1147,ACCION,MORENO,457,,MORENO 457,MONSERRAT,COMUNA 01,1091,C1091AAI,,4343-6474,,,LIBRERIA,,,GENERAL,PRIVADO
-34.62364266,-58.37841769,1714,ACERCANDONOS MOVIMIENTO CULTURAL,COCHABAMBA,894,,COCHABAMBA 894,CONSTITUCION,COMUNA 01,1150,C1150AAN,,4300-9506 // 6088-4426,ACERCANDONOSMOVIMIENTOCULTURAL@GMAIL.COM,WWW.ACERCANDONOSCULTURA.COM.AR,EDITORIAL,,,GENERAL,PRIVADO
-34.60545886,-58.37931013,1148,ACME AGENCY. CASA CENTRAL.,SUIPACHA,245,PISO 1,SUIPACHA 245,SAN NICOLAS,COMUNA 01,1008,C1008AAE,,4328-1662,ACME@REDYNET.COM.AR,,LIBRERIA,,,GENERAL,PRIVADO
-34.59407052,-58.37979734,1813,ACME AGENCY. SUCURSAL ARENALES.,ARENALES,885,,ARENALES 885,RETIRO,COMUNA 01,1061,C1061AAC,,4393-8830,ACME@REDYNET.COM.AR,,LIBRERIA,,,GENERAL,PRIVADO
-34.61853468,-58.37313927,2165,ACONCAGUA,ESTADOS UNIDOS,502,,ESTADOS UNIDOS 502,SAN TELMO,COMUNA 01,1101,C1101AAL,,,,,BAR IDENTIFICADO,,,,
-34.60450396,-58.39207388,797,ACQUA RECORDS,CORRIENTES AV.,1792,,CORRIENTES AV. 1792,SAN NICOLAS,COMUNA 01,1042,C1042AAQ,,"4371-6978, INTERNO 131",INFO@ACQUA-RECORDS.COM,HTTP://WWW.ACQUA-RECORDS.COM/,SELLO DISCOGRAFICO,,,GENERAL,PRIVADO
-34.6006537,-58.38736633,1149,AD-HOC VILLELA EDITOR,VIAMONTE,1450,,VIAMONTE 1450,SAN NICOLAS,COMUNA 01,1055,C1055ABB,,4371-0778,INFO@ADHOC-VILLELA.COM,WWW.ADHOC-VILLELA.COM,LIBRERIA,,,GENERAL,PRIVADO
-34.59147692,-58.37980286,397,AGALMA.ARTE,ARROYO,882,,ARROYO 882,RETIRO,COMUNA 01,1007,C1007AAB,LUNES A VIERNES DE 12:00 A 20:00,4328-7591,,WWW.AGALMAARTE.COM,GALERIA DE ARTE,,,GENERAL,PRIVADO
-34.59937639,-58.37821079,1150,AGAPE LIBROS,ESMERALDA,755,,ESMERALDA 755,SAN NICOLAS,COMUNA 01,1007,C1007ABG,,4328-4606,ESMERALDA@AGAPE-LIBROS.COM.AR,WWW.AGAPE-LIBROS.COM.AR,LIBRERIA,,,GENERAL,PRIVADO
-34.60212434,-58.3795156,1155,ALBERTO CASARES,SUIPACHA,521,,SUIPACHA 521,SAN NICOLAS,COMUNA 01,1008,C1008AAK,LUNES A VIERNES 10:00 A 14:00 Y DE 15:00 A 20:00 SABADO 10:00 A 14:00,4322-6198/0794,CASARESLIBROS@FIBERTEL.COM.AR,WWW.ACASARES.SERVISUR.COM,LIBRERIA,,,GENERAL,PRIVADO
-34.59831733,-58.37532533,1157,ALETHEIA,FLORIDA,835,,FLORIDA 835,RETIRO,COMUNA 01,1005,C1005AAQ,,4313-3481,ALETHEIALIBROS@HOTMAIL.COM,,LIBRERIA,,,GENERAL,PRIVADO
-34.5981565,-58.38577211,1008,ALFAOMEGA GRUPO EDITOR,PARAGUAY,1307,PB DPTO 11,PARAGUAY 1307,RETIRO,COMUNA 01,1057,C1057AAU,,448352 / 4811-7183 / 4811-0887,,WWW.ALFAOMEGA.COM.MX,EDITORIAL,,,,PRIVADO
-34.59907222,-58.38022917,685,ALIANZA FRANCESA DE BUENOS AIRES (SEDE CORDOBA),CORDOBA AV.,936,,CORDOBA AV. 936,SAN NICOLAS,COMUNA 01,1054,C1054AAV,,4322-0068,INFO@ALIANZAFRANCESA.ORG.AR,WWW.ALIANZAFRANCESA.ORG.AR,CENTRO CULTURAL,,,GENERAL,PRIVADO
-34.60245733,-58.39129315,1818,ALMAGESTO,RODRIGUEZ PEÑA,554,,RODRIGUEZ PEÑA 554,SAN NICOLAS,COMUNA 01,1020,C1020ADL,,4371-3523,INFO@ALMAGESTO.COM.AR,WWW.ALMAGESTO.COM.AR,LIBRERIA,,,GENERAL,PRIVADO
-34.61363555,-58.37150421,961,AM 750,REPUBLICA BOLIVARIANA DE VENEZUELA,370,PISO 2,REPUBLICA BOLIVARIANA DE VENEZUELA 370,MONSERRAT,COMUNA 01,1095,C1095AAH,,5354-6651,,WWW.RADIOAM750.COM.AR,RADIO LOCAL (AM Y FM),,,GENERAL,PRIVADO
-34.607122,-58.37536095,197,AMERICAN BAR,"SAENZ PEÑA, ROQUE, PRES. DIAGONAL NORTE AV.",632,,"SAENZ PEÑA, ROQUE, PRES. DIAGONAL NORTE AV. 632",SAN NICOLAS,COMUNA 01,1035,C1035AAO,,4331-4825,,,BAR NOTABLE,,,GENERAL,PRIVADO
-34.59807859,-58.38446785,955,AMORRORTU EDITORES,PARAGUAY,1225,PISO 7,PARAGUAY 1225,RETIRO,COMUNA 01,1057,C1057AAS,,4816-5812,,WWW.AMORRORTUEDITORES.COM,EDITORIAL,,,GENERAL,PRIVADO
-34.6010403,-58.38812352,273,ANDAMIO 90,PARANA,662,,PARANA 662,SAN NICOLAS,COMUNA 01,1017,C1017AAN,LUNES A VIERNES DE 15:00 A 22:00,4374-1484//4372-8386,INFO@ANDAMIO90.ORG,WWW.ANDAMIO90.ORG,"ESPACIO ESCENICO (TEATRO, MUSICA Y DANZA)",,,GENERAL,PRIVADO
-34.59668691,-58.37984738,1128,ANSWER JUST TIME S.R.L.,SUIPACHA,987,PISO 10 DPTO D,SUIPACHA 987,RETIRO,COMUNA 01,1008,C1008AAS,,4311-2427,INFO@ANSWERPUBLISHING.COM,WWW.ANSWERPUBLISHING.COM,EDITORIAL,,,,PRIVADO
-34.59808426,-58.37829518,1357,ANTICUARIA POEMA 20,ESMERALDA,869,,ESMERALDA 869,RETIRO,COMUNA 01,1007,C1007ABI,LUNES A VIERNES DE 10:00 A 20:00 SABADOS DE 10:00 A 13:30,4312-0199,POEMA20@FIBERTEL.COM.AR,,LIBRERIA,,,GENERAL,PRIVADO
-34.59756957,-58.38418825,822,ANTICUARIO LORD BYRON,LIBERTAD,948,LOCAL 16 A,LIBERTAD 948,RETIRO,COMUNA 01,1012,C1012AAT,,4811-0902,,WWW.RINCONDELACULTURA.COM,LIBRERIA,,,GENERAL,PRIVADO
-34.61669316,-58.38451844,1052,ANTIDOTO EDITORIAL,CHILE,1302,,CHILE 1302,MONSERRAT,COMUNA 01,1098,C1098ABB,,4381-2718,,,EDITORIAL,,,,PRIVADO
-34.60851114,-58.38297762,1168,ANTIGUA,RIVADAVIA AV.,1175,,RIVADAVIA AV. 1175,SAN NICOLAS,COMUNA 01,1033,C1033AAB,LUNES A VIERNES 13:30 A 20:30,4382-0314,,,LIBRERIA,,,GENERAL,PRIVADO
-34.60071776,-58.38879624,1169,APLICACION TRIBUTARIA S.A.,VIAMONTE,1550,,VIAMONTE 1550,SAN NICOLAS,COMUNA 01,1055,C1055ABD,,4374-5418,VENTAS@APLICACION.COM.AR,WWW.APLICACION.COM.AR,LIBRERIA,,,GENERAL,PRIVADO
-34.61448383,-58.37610163,389,APPETITE CONTEMPOPORARY ART,CHACABUCO,551,,CHACABUCO 551,MONSERRAT,COMUNA 01,1069,C1069AAK,LUNES A SABADO DE 14:00 A 19:00,4331-5405,NUEVOAPPETITE@GMAIL.COM,WWW.APETITE.COM.AR,GALERIA DE ARTE,,,GENERAL,PRIVADO
-34.59733121,-58.37695514,956,ARCA DIFUSION,MAIPU,916,PISO 3 DPTO B,MAIPU 916,RETIRO,COMUNA 01,1006,C1006ACN,,4313-4113,INFO@ARCADIFUSION.COM.AR,WWW.ARCADIFUSION.COM.AR,PRODUCTORA AUDIOVISUAL,,,ADULTOS,PRIVADO
-34.60478611,-58.37033339,586,ARCHIVO GENERAL DE LA NACION,"ALEM, LEANDRO N. AV.",246,PISO 3,"ALEM, LEANDRO N. AV. 246",SAN NICOLAS,COMUNA 01,1003,C1003AAP,LUNES A VIERNES DE 10:00 A 17:00,4334-0051 // 4331-5531,ARCHIVO@MININTERIOR.GOV.AR,WWW.MININTERIOR.GOV.AR,ARCHIVO,BIBLIOTECA ESPECIALIZADA ARCHIVO GENERAL DE LA NACION,MINISTERIO DEL INTERIOR.,GENERAL,ESTADO NACIONAL
-34.62051371,-58.36847137,585,ARCHIVO GENERAL DE LA NACION - ARCHIVO INTERMEDIO,PASEO COLON AV.,1093,,PASEO COLON AV. 1093,SAN TELMO,COMUNA 01,1063,C1063ACK,LUNES A VIERNES DE 10:00 A 17:00,"4339-0800, INTERNOS:1152/53/54",ARCHIVOINTERMEDIO@MININTERIOR.GOV.AR,WWW.MININTERIOR.GOV.AR,ARCHIVO,,MINISTERIO DEL INTERIOR.,GENERAL,ESTADO NACIONAL
-34.60927675,-58.3697039,582,ARCHIVO TECNICO DE LA SECRETARIA DE ENERGIA,PASEO COLON AV.,171,,PASEO COLON AV. 171,MONSERRAT,COMUNA 01,1063,C1063ACB,,4349-5000,ENERGIA@MIOPLAN.GOV.AR,WWW.ENERGIA.GOV.AR,BIBLIOTECA,,"SECRETARIA DE ENERGIA. MINISTERIO DE PLANIFICACION FEDERAL, INVERSION PUBLICA Y SERVICIOS.",GENERAL,ESTADO NACIONAL
-34.60434981,-58.37193114,473,"ARCHIVO Y MUSEO HISTORICOS DEL BANCO DE LA PROVINCIA DE BUENOS AIRES  ""DR. ARTURO JAURETCHE""",SARMIENTO,362,,SARMIENTO 362,SAN NICOLAS,COMUNA 01,1041,C1041AAH,LUNES A VIERNES DE 10:00 A 18:00,4331-1775 / 7943,,WWW.BAPRO.COM.AR/MUSEO/INDEX,MUSEO,ACTOS CULTURALES,BANCO PROVINCIA BUENOS AIRES.,GENERAL,ESTADO PROVINCIAL
-34.61459392,-58.3775448,604,AREA DE DOCUMENTACION Y ARCHIVOS CENTRO DE ESTUDIOS LEGALES Y SOCIALES,PIEDRAS,547,PISO 1,PIEDRAS 547,MONSERRAT,COMUNA 01,1070,C1070AAK,LUNES A VIERNES DE 9:00 A 19:00,4334-4200,CELS@CELS.ORG.AR,WWW.CELS.ORG.AR,ARCHIVO,BIBLIOTECA ESPECIALIZADA CENTRO DE ESTUDIOS LEGALES Y SOCIALES,,GENERAL,ONG
-34.61119372,-58.3871424,324,ARLEQUINO,"ALSINA, ADOLFO",1484,,"ALSINA, ADOLFO 1484",MONSERRAT,COMUNA 01,1088,C1088AAL,MIERCOLES A DOMINGOS DE 18:00 A 23:00,4382-7775,TEATRO-ARLEQUINO@YAHOO.COM.AR,,"ESPACIO ESCENICO (TEATRO, MUSICA Y DANZA)",,,GENERAL,PRIVADO
-34.62292372,-58.38149571,856,ARTEAR,LIMA,1261,,LIMA 1261,CONSTITUCION,COMUNA 01,1138,C1138ACA,,,PRENSA@ARTEAR.COM,WWW.ARTEAR.COM.AR,PRODUCTORA AUDIOVISUAL,,,ADULTOS,PRIVADO
-34.6271447,-58.38278757,636,ARTE CINEMA ESPACIO INCAA KM3,SALTA,1620,,SALTA 1620,CONSTITUCION,COMUNA 01,1137,C1137ACJ,MIERCOLES A LUNES DE 14:00 A 22:00,4304-8302,,WWW.ARTECINEMA.COM.AR,CINE,,INSTITUTO NACIONAL DE ARTES AUDIOVISUALES.,GENERAL,ESTADO NACIONAL
-34.61053825,-58.36625931,993,ARTNOVELA EDICIONES,"MOREAU DE JUSTO, ALICIA AV.",1120,PISO 3 DPTO 306A,"MOREAU DE JUSTO, ALICIA AV. 1120",PUERTO MADERO,COMUNA 01,1107,C1107AAX,,4988-1155,CONSULTAS@ARTNOVELA.COM.AR,WWW.ARTNOVELA.COM.AR,EDITORIAL,,,,
-34.60245573,-58.39240928,726,ASAMBLEA PERMANENTE POR LOS DERECHOS HUMANOS,CALLAO AV.,569,PISO 1 3ER. CUERPO,CALLAO AV. 569,SAN NICOLAS,COMUNA 01,1022,C1022AAF,,4372 8594//4373 6073,APAH@APAH-ARGENTINA.ORG.AR,,ARCHIVO,,,GENERAL,
-34.6147192,-58.38799983,2072,ASOCIACION CENTRO BETANZOS,REPUBLICA BOLIVARIANA DE VENEZUELA,1534,,REPUBLICA BOLIVARIANA DE VENEZUELA 1534,MONSERRAT,COMUNA 01,1095,C1095ABF,,4381-1741,,,CENTRO CULTURAL,,,GENERAL,ASOCIACION CIVIL
-34.60188292,-58.39018576,686,ASOCIACION DANTE ALIGHIERI DE BUENOS AIRES (SEDE TUCUMAN),TUCUMAN,1646,,TUCUMAN 1646,SAN NICOLAS,COMUNA 01,1050,C1050AAH,,4371-2480,SECRETARIA@DANTE.EDU.AR,WWW.DANTE.EDU.AR,CENTRO CULTURAL,,,GENERAL,PRIVADO
-34.60643359,-58.38582234,2074,ASOCIACION ITALIANA DE MUTUALIDAD E INSTRUCCION UNIONE E BENEVOLENZA,"PERON, JUAN DOMINGO, TTE. GENERAL",1362,,"PERON, JUAN DOMINGO, TTE. GENERAL 1362",SAN NICOLAS,COMUNA 01,1038,C1038ABB,,4372-3025,AIMI@SPEEDY.COM.AR,WWW.UNIONEEBENEVOLENZA.COM.AR,ESPACIO DE FORMACION (SEMINARIOS Y TALLERES),,,GENERAL,ASOCIACION CIVIL
-34.6022467,-58.37386383,1433,ASOCIACION PROFESIONALES DE MEDIOS,SAN MARTIN,491,PISO 1,SAN MARTIN 491,SAN NICOLAS,COMUNA 01,1004,C1004AAI,LUNES A VIERNES DE 9 A 20,4393-0237 / 4741,CURSOS@APM-ONLINE.COM.AR,WWW.APMONLINE.COM.AR,ESPACIO DE FORMACION (SEMINARIOS Y TALLERES),,,GENERAL,PRIVADO
-34.6011237,-58.37718213,1032,ASTERISCO,TUCUMAN,731,,TUCUMAN 731,SAN NICOLAS,COMUNA 01,1049,C1049AAO,,5217-9915,INFO@ASTERISCO.COM.AR,WWW.ASTERISCO.COM.AR,SELLO DISCOGRAFICO,,,GENERAL,PRIVADO
-34.60276009,-58.38404373,971,ASTREA EDITORIAL,LAVALLE,1208,,LAVALLE 1208,SAN NICOLAS,COMUNA 01,1048,C1048AAF,LUNES A VIERNES DE 9:00 A 19:00,4382-1880,INFO@ASTREA.COM.AR,WWW.ASTREA.COM.AR,EDITORIAL,,,GENERAL,PRIVADO
-34.60352393,-58.37727902,278,ASTROS,CORRIENTES AV.,746,,CORRIENTES AV. 746,SAN NICOLAS,COMUNA 01,1043,C1043AAU,LUNES A DOMINGOS DE 10:00 A 22:00,4552-9991,,WWW.TEATROASTROS.COM.AR,"ESPACIO ESCENICO (TEATRO, MUSICA Y DANZA)",,,GENERAL,PRIVADO
-34.60684647,-58.38538997,1174,ASUNTO IMPRESO,"RIVAROLA, RODOLFO, DR.",153,,"RIVAROLA, RODOLFO, DR. 153",SAN NICOLAS,COMUNA 01,1015,C1015AAA,,4383-6262,,WWW.ASUNTOIMPRESO.COM,LIBRERIA,,,GENERAL,PRIVADO
-34.60735636,-58.38535835,1140,ASUNTO IMPRESO EDICIONES,"RIVAROLA, RODOLFO, DR.",115,,"RIVAROLA, RODOLFO, DR. 115",SAN NICOLAS,COMUNA 01,1015,C1015AAA,,4383-6262,EDICIONES@ASUNTOIMPRESO.COM,WWW.ASUNTOIMPRESO.COM,EDITORIAL,,,GENERAL,PRIVADO
-34.62035038,-58.37419339,1175,ASUNTO IMPRESO. SUCURSAL PERU.,PERU,1064,,PERU 1064,SAN TELMO,COMUNA 01,1068,C1068AAL,,4361-8210,,WWW.ASUNTOIMPRESO.COM,LIBRERIA,,,GENERAL,PRIVADO
-34.58810114,-58.38340148,675,ATLAS PATIO BULLRICH,DEL LIBERTADOR AV.,750,,DEL LIBERTADOR AV. 750,RETIRO,COMUNA 01,1001,C1001ABU,LUNES A DOMINGOS DE 12:20 A 22:40,4814-7447,,WWW.ATLASCINES.COM.AR,CINE,,,GENERAL,PRIVADO
-34.5928569,-58.385487,1240,AUDITORIO DE LA FUNDACION BEETHOVEN,JUNCAL,1264,PISO 3,JUNCAL 1264,RETIRO,COMUNA 01,1062,C1062ABN,,4811-3971 // 4812-4319,COMUNICACION@FUNDACIONBEETHOVEN.COM.AR,WWW.FUNDACIONBEETHOVEN.COM.AR,"ESPACIO ESCENICO (TEATRO, MUSICA Y DANZA)",,,GENERAL,PRIVADO
-34.6041613,-58.38865419,1231,AUDITORIO LOSADA,CORRIENTES AV.,1551,,CORRIENTES AV. 1551,SAN NICOLAS,COMUNA 01,1042,C1042AAB,,4371-9098,AUDITORIOLOSADA@HOTMAIL.COM,WWW.FACEBOOK.COM/AUDITORIOLOSADA,"ESPACIO ESCENICO (TEATRO, MUSICA Y DANZA)",,,GENERAL,PRIVADO
-34.60653983,-58.38076386,1033,AVA RECORDS,"PELLEGRINI, CARLOS",155,PISO 1,"PELLEGRINI, CARLOS 155",SAN NICOLAS,COMUNA 01,1009,C1009ABC,,4326-2031,INFO@AVAREVORDS.COM.AR,WWW.AVARECORDS.COM.AR,SELLO DISCOGRAFICO,,,GENERAL,PRIVADO
-34.60433898,-58.3898641,240,BAJO CORRIENTES,CORRIENTES AV.,1632,,CORRIENTES AV. 1632,SAN NICOLAS,COMUNA 01,1042,C1042AAP,,4377-8819,,,"ESPACIO ESCENICO (TEATRO, MUSICA Y DANZA)",,,GENERAL,PRIVADO
-34.61064755,-58.37975282,977,BALLETIN DANCE,"ALSINA, ADOLFO",943,PISO 4 DPTO 410,"ALSINA, ADOLFO 943",MONSERRAT,COMUNA 01,1088,C1088AAA,LUNES A VIERNES DE 10:00 A 17:00,4331-0400,INFO@BALLETINDANCE.COM.AR,WWW.BALLETINDANCE.COM.AR,EDITORIAL,,,GENERAL,PRIVADO
-34.60502349,-58.37238758,1570,"BANCO CENTRAL DE LA REPUBLICA ARGENTINA - BIBLIOTECA ""RAUL PRESBICH""",RECONQUISTA,250,PISO 1,RECONQUISTA 250,SAN NICOLAS,COMUNA 01,1003,C1003ABF,LUNES A VIERNES DE 10:00 A 15:00,4348-3772 / 4348-3771,BIBLIO@BCRA.GOV.AR,WWW.BCRA.GOV.AR,BIBLIOTECA,,BANCO CENTRAL DE LA REPUBLICA ARGENTINA,GENERAL,ESTADO NACIONAL
-34.59788884,-58.37319366,194,BARBARO - BAR O BAR,TRES SARGENTOS,415,,TRES SARGENTOS 415,RETIRO,COMUNA 01,1054,C1054ABC,LUNES A JUEVES DE 8:00 A 1:00 VIERNES Y SABADOS DE 8:00 A 3:00,4311-6856,INFO@BAROBAR.COM.AR,HTTP://BARBAROBAR.COM.AR,BAR CULTURAL,,,GENERAL,PRIVADO
-34.62530893,-58.37083484,187,BAR BRITANICO,BRASIL AV.,399,,BRASIL AV. 399,SAN TELMO,COMUNA 01,1154,C1154AAC,,4361-7902 // 4361-2107,,WWW.BARBRITANICO.COM.AR,BAR NOTABLE,,,GENERAL,PRIVADO
-34.6194589,-58.37131154,190,BAR EL FEDERAL,"CALVO, CARLOS",395,,"CALVO, CARLOS 395",SAN TELMO,COMUNA 01,1102,C1102AAG,,4300-4313,,WWW.BARELFEDERAL.COM.AR,BAR NOTABLE,,,GENERAL,PRIVADO
-34.6092602,-58.3832978,2140,BAR IBERIA,DE MAYO AV.,1196,,DE MAYO AV. 1196,MONSERRAT,COMUNA 01,1085,C1085ABO,,,,,BAR IDENTIFICADO,,,,
-34.60851023,-58.37473569,2143,BAR LONDON CITY,DE MAYO AV.,599,,DE MAYO AV. 599,MONSERRAT,COMUNA 01,1084,C1084AAA,,,,,BAR IDENTIFICADO,,,,
-34.62055305,-58.37139071,193,BAR PLAZA DORREGO,DEFENSA,1096,,DEFENSA 1096,SAN TELMO,COMUNA 01,1065,C1065AAT,,4361-8141 // 4361-0141,CYUTERA@HOTMAIL.COM,,BAR NOTABLE,,,GENERAL,PRIVADO
-34.60116429,-58.38539574,1711,BARRY EDITORIAL,TALCAHUANO,638,PB DPTO H,TALCAHUANO 638,SAN NICOLAS,COMUNA 01,1013,C1013AAN,,4371-1313 // 4383-0745,CONTACTO@BARRYEDITORIAL.COM.AR,WWW.BARRYEDITORIAL.COM.AR,EDITORIAL,,,GENERAL,PRIVADO
-34.61591838,-58.37175534,188,BAR SEDDON,DEFENSA,695,,DEFENSA 695,MONSERRAT,COMUNA 01,1065,C1065AAK,,4342-3700,,,BAR NOTABLE,,,GENERAL,PRIVADO
-34.61839072,-58.37002532,178,BAR SUR,ESTADOS UNIDOS,299,,ESTADOS UNIDOS 299,SAN TELMO,COMUNA 01,1101,C1101AAE,,4362-6086,INFO@BAR-SUR.COM.AR,WWW.BAR-SUR.COM.AR,BAR NOTABLE,,,GENERAL,PRIVADO
-34.60771898,-58.38832417,629,BARTOLOMEO,"MITRE, BARTOLOME",1525,,"MITRE, BARTOLOME 1525",SAN NICOLAS,COMUNA 01,1037,C1037ABC,MARTES A VIERNES DE 10:00 A 20:00,4372-2843,,,"ESPACIO ESCENICO (TEATRO, MUSICA Y DANZA)",,,GENERAL,PRIVADO
-34.6043295,-58.38974654,320,BELISARIO CLUB DE CULTURA,CORRIENTES AV.,1624,,CORRIENTES AV. 1624,SAN NICOLAS,COMUNA 01,1042,C1042AAP,LUNES A VIERNES DE 10:00 A 21:00 SABADOS Y DOMINGOS DE 17:00 A 22:00,4373-3465,BELISARIOTEATRO@HOTMAIL.COM,WWW.FACEBOOK.COM/BELISARIOCLUB,"ESPACIO ESCENICO (TEATRO, MUSICA Y DANZA)",,,GENERAL,PRIVADO
-34.60560716,-58.38929482,1828,BERNIE,MONTEVIDEO,295,,MONTEVIDEO 295,SAN NICOLAS,COMUNA 01,1019,C1019ABE,,5811-4432,,,LIBRERIA,,,JOVENES,PRIVADO
-34.61369926,-58.38865008,1587,BIBLIOTECA AIDIS ASOCIACION INTERAMERICANA DE INGENIERIA SANITARIA Y CIENCIAS DEL AMBIENTE,BELGRANO AV.,1580,PISO 3,BELGRANO AV. 1580,MONSERRAT,COMUNA 01,1093,C1093AAQ,LUNES A VIERNES DE 12:30 A 18:30,4381-5832,BIBLIOTECA@AIDISAR.ORG,WWW.AIDISAR.ORG,BIBLIOTECA,,,GENERAL,ONG
-34.61472016,-58.3881375,4,BIBLIOTECA ALFONSINA STORNI,REPUBLICA BOLIVARIANA DE VENEZUELA,1538,PISO 1,REPUBLICA BOLIVARIANA DE VENEZUELA 1538,MONSERRAT,COMUNA 01,1095,C1095ABF,LUNES A VIERNES DE 9:00 A 19:00,4381-9345,BIBLIOTECA_STORNI@BUENOSAIRES.GOB.AR,HTTP://WWW.BUENOSAIRES.GOV.AR/AREAS/CULTURA/DG_LIBRO,BIBLIOTECA,,"MINISTERIO DE CULTURA - DIRECCION GENERAL DEL LIBRO, BIBLIOTECAS Y PROMOCION DE LA LECTURA",GENERAL,ESTADO MUNICIPAL
-34.59702438,-58.3858518,561,"BIBLIOTECA ALVEAR ""R.P. ERNESTO DANN OBREGON S.J"" UNIVERSIDAD DEL SALVADOR","ALVEAR, MARCELO T. DE",1312,PISO 2,"ALVEAR, MARCELO T. DE 1312",RETIRO,COMUNA 01,1058,C1058AAV,LUNES A VIERNES DE 09:00 A 20:30,"4813-3400, INTERNO: 5",USD-BIB2@SALVADOR.EDU.AR,WWW.SALVADOR.EDU.AR/VRID/BIBLIOTECA/INDEX.HTM,BIBLIOTECA,,,GENERAL,PRIVADO
-34.59364013,-58.38291588,512,BIBLIOTECA ANTARTIDA,CERRITO,1248,PB,CERRITO 1248,RETIRO,COMUNA 01,1010,C1010AAZ,LUNES A VIERNES DE 10:00 A 13:00 Y DE 13:30 A 16:00,4812-0071/72,,WWW.DNA.GOV.AR,BIBLIOTECA,,INSTITUTO ANTARTICO ARGENTINO. MINISTERIO DE RELACIONES EXTERIORES Y CULTO.,GENERAL,ESTADO NACIONAL
-34.60982483,-58.38388105,524,BIBLIOTECA AUDITORIA GENERAL DE LA NACION,"YRIGOYEN, HIPOLITO",1236,PISO 2,"YRIGOYEN, HIPOLITO 1236",MONSERRAT,COMUNA 01,1086,C1086AAV,LUNES A VIERNES DE 09:30 A 17:30,4124-3759,,WWW.AGN.GOV.AR,BIBLIOTECA,,AUDITORIA GENERAL DE LA NACION.,GENERAL,ESTADO NACIONAL
-34.60000624,-58.37084325,518,"BIBLIOTECA ""BIALET MASSE""","ALEM, LEANDRO N. AV.",650,PB,"ALEM, LEANDRO N. AV. 650",SAN NICOLAS,COMUNA 01,1001,C1001AAO,LUNES A VIERNES DE 09:00 A 17:00,4310-6073,,WWW.TRABAJO.GOV.AR,BIBLIOTECA,,"MINISTERIO DE TRABAJO, EMPLEO Y SEGURIDAD SOCIAL.",GENERAL,ESTADO NACIONAL
-34.62396997,-58.36733921,570,BIBLIOTECA CENTRAL DE LA UNIVERSIDAD AUSTRAL,"GARAY, JUAN DE AV.",125,,"GARAY, JUAN DE AV. 125",SAN TELMO,COMUNA 01,1063,C1063ABB,LUNES A VIERNES DE 08:00 A 20:00,"5921-8000, INTERNO: 8617",,WWW.AUSTRAL.EDU.AR/AUSTRAL-UNIVERSIDAD-BIBLIOTECACENTRAL.ASP,BIBLIOTECA,,,GENERAL,PRIVADO
-34.61067597,-58.36982401,603,BIBLIOTECA CENTRAL DEL ESTADO MAYOR CONJUNTO DE LAS FUERZAS ARMADAS,PASEO COLON AV.,255,PISO 1,PASEO COLON AV. 255,MONSERRAT,COMUNA 01,1063,C1063ACC,LUNES A DOMINGOS DE 10:00 A 17:00,4339-0294 // 4343-1561 AL 69,,WWW.VICYT.CAICYT.GOV.AR,BIBLIOTECA,,MINISTERIO DE DEFENSA.,GENERAL,ESTADO NACIONAL
-34.59604229,-58.37669889,528,"BIBLIOTECA CENTRAL Y CENTRO DE DOCUMENTACION ""PERITO FRANCISCO P. MORENO""",SANTA FE AV.,690,PB,SANTA FE AV. 690,RETIRO,COMUNA 01,1059,C1059ABN,MARTES A VIERNES DE 10:00 A 13:00 Y DE 14:00 A 17:00,"4311-0303, INTERNO: 131",BIBLIOTECA@APN.GOV.AR,HTTP://WWW.NETVIBES.COM/BIBLIOTECAPARQUESNACIONALES#DATOS_DE_LA_BIBLIOTECA,BIBLIOTECA,,ADMINISTRACION DE PARQUES NACIONALES (APN).,GENERAL,ESTADO NACIONAL
-34.61847187,-58.37939972,516,BIBLIOTECA CENTRO DE ESTUDIOS PARA LA NUEVA MAYORIA,ESTADOS UNIDOS,943,,ESTADOS UNIDOS 943,CONSTITUCION,COMUNA 01,1101,C1101AAS,LUNES A VIERNES DE 10:00 A 18:00,4300-3077,NMAYORIA@ROSENDOFRAGA.COM.AR,,BIBLIOTECA,,,GENERAL,PRIVADO
-34.60027006,-58.37682743,1586,BIBLIOTECA CENTTRO LINCOLN INSTITUTO CULTURAL ARGENTINO NORTEAMERICANO,MAIPU,686,,MAIPU 686,SAN NICOLAS,COMUNA 01,1006,C1006ACH,LUNES A VIERNES DE 10:00 A 16:30,4382-1536,INFO@BCL.EDU.AR,WWW.BCL.EDU.AR,BIBLIOTECA,,,GENERAL,PRIVADO
-34.59953269,-58.38912806,11,BIBLIOTECA CIRCE - BIBLIOTECA TESORO,CORDOBA AV.,1558,,CORDOBA AV. 1558,SAN NICOLAS,COMUNA 01,1055,C1055AAS,LUNES A VIERNES: 9 A 13 HS CON RESERVA TELEFONICA,4812-1840 INTERNO: 119,BIBLIOTECA_CIRCE@BUENOSAIRES.GOB.AR,HTTP://WWW.BUENOSAIRES.GOV.AR/AREAS/CULTURA/DG_LIBRO,BIBLIOTECA,,"MINISTERIO DE CULTURA - DIRECCION GENERAL DEL LIBRO, BIBLIOTECAS Y PROMOCION DE LA LECTURA",GENERAL,ESTADO MUNICIPAL
-34.61099094,-58.3734388,1573,BIBLIOTECA COLEGIO NACIONAL BUENOS AIRES,BOLIVAR,263,,BOLIVAR 263,MONSERRAT,COMUNA 01,1066,C1066AAE,LUNES A VIERNES DE 9:00 A 17:00,4331-1290 / 4331-9443,BIBLIOTECA@CNBA.UBA.AR,WW,BIBLIOTECA,,UNIVERSIDAD DE BUENOS AIRES.,,ESTADO NACIONAL
-34.61094621,-58.36812627,584,"BIBLIOTECA DE DEFENSA ""GENERALA JUANA AZURDUY""",AZOPARDO,0,,AZOPARDO Y MORENO,MONSERRAT,COMUNA 01,0,0,LUNES A VIERNES DE 10:30 A 15:00,4348-6100,,WWW.EJERCITO.MIL.AR,BIBLIOTECA,,MINISTERIO DE DEFENSA.,GENERAL,ESTADO NACIONAL
-34.61090014,-58.36982282,583,BIBLIOTECA DE LA COMISION NACIONAL DE COMERCIO EXTERIOR,PASEO COLON AV.,275,PISO 6,PASEO COLON AV. 275,MONSERRAT,COMUNA 01,1063,C1063ACC,LUNES A VIERNES DE 10:00 A 13:00 Y DE 14:00 A 17:00,4348-1724,INSTITUCIONALES@CNE.GOV.AR,HTTP://WWW.CNCE.GOV.AR/BIBLIOTECA/PW_CENTRO_INFO.HTML,BIBLIOTECA,,COMISION NACIONAL DE COMERCIO EXTERIOR. SECRETARIA DE COMERCIO EXTERIOR. MINISTERIO DE ECONOMIA Y FINANZAS PUBLICAS.,GENERAL,ESTADO NACIONAL
-34.61487465,-58.37418195,743,BIBLIOTECA DE LA COMISION NACIONAL DE COMUNICACIONES,MEXICO,571,PB,MEXICO 571,MONSERRAT,COMUNA 01,1097,C1097AAK,LUNES A VIERNES DE 10:00 A 16:00,4349-9145/47/52,CIT@CNC.GOV.AR,WWW.CNC.GOV.AR,BIBLIOTECA,,"COMISION NACIONAL DE COMUNICACIONES. MINISTERIO DE PLANIFICACION FEDERAL, INVERSION PUBLICA Y SERVICIOS.",GENERAL,ESTADO NACIONAL
-34.61193073,-58.37644371,749,BIBLIOTECA DE LA DIRECCION NACIONAL DE VIALIDAD,"ROCA, JULIO A., PRESIDENTE DIAGONAL SUR AV.",734,PISO 10,"ROCA, JULIO A., PRESIDENTE DIAGONAL SUR AV. 734",MONSERRAT,COMUNA 01,1067,C1067ABP,LUNES A VIERNES DE 09:00 A 17:00,"4343-8521/29, INTERNO: 2025",BIBLIOTECA@VIALIDAD.GOV.AR,WW.VIALIDAD.CGOV.AR/BIBLITOECA/BIBLIOTECA.HTM,BIBLIOTECA,,DIRECCION NACIONAL DE VIALIDAD. SECRETARIA DE OBRAS PUBLICAS.,GENERAL,ESTADO NACIONAL
-34.62240931,-58.37280778,735,BIBLIOTECA DE LA ESCUELA NORMAL SUPERIOR N°3 BERNARDINO RIVADAVIA,BOLIVAR,1235,,BOLIVAR 1235,SAN TELMO,COMUNA 01,1141,C1141AAA,LUNES A VIERNES DE 08:00 A 12:00,4361-8965/0424,ENS3DE4@BUENOSAIRES.EDU.AR,,BIBLIOTECA,,MINISTERIO DE EDUCACION.,GENERAL,ESTADO MUNICIPAL
-34.61478381,-58.3774601,737,BIBLIOTECA DE LA FUNDACION PODER CIUDADANO,PIEDRAS,574,,PIEDRAS 574,MONSERRAT,COMUNA 01,1070,C1070AAL,LUNES A VIERNES DE 10:00 A 18:00,4331-4925/26,FUNDACIONPODERCIUDADANO@ORG.,WWW.PODERCIUDADANO.ORG,BIBLIOTECA,,,GENERAL,ONG
-34.60698521,-58.37728366,525,BIBLIOTECA DE LA SUPERINTENDENCIA DE RIESGOS DEL TRABAJO,"MITRE, BARTOLOME",751,PISO 3,"MITRE, BARTOLOME 751",SAN NICOLAS,COMUNA 01,1036,C1036AAM,LUNES A VIERNES DE 09:00 A 17:00,"4321-3500, INTERNO:1300",,WWW.SRT.GOV.AR/BIBLIOTECASRT/BIBLIOTECASRT.HTM,BIBLIOTECA,,"MINISTERIO DE TRABAJO, EMPLEO Y SEGURIDAD SOCIAL.",GENERAL,ESTADO NACIONAL
-34.60906993,-58.38279614,593,BIBLIOTECA DE LA UNION INDUSTRIAL ARGENTINA,DE MAYO AV.,1147,,DE MAYO AV. 1147,MONSERRAT,COMUNA 01,1085,C1085ABB,,4124-2300,VIA@VIA.ORG.AR,WWW.VIA.ORG.AR,ARCHIVO,,,GENERAL,ONG
-34.61707518,-58.38159946,724,BIBLIOTECA DE LA UNIVERSIDAD ARGENTINA DE LA EMPRESA,LIMA,717,,LIMA 717,MONSERRAT,COMUNA 01,1073,C1073AAO,,4010 7756//4014 7129,REFERENCIA@UADE.EDU.AR // BIBLIOTECA@UADE.EDU.AR,WWW.BIBLIOTECA.UADE.EDU.AR,BIBLIOTECA,,,GENERAL,PRIVADO
-34.59374771,-58.37859849,565,BIBLIOTECA DEL CENTRO DE ECONOMIA INTERNACIONAL (CEI),ESMERALDA,1212,,ESMERALDA 1212,RETIRO,COMUNA 01,1007,C1007ABR,LUNES A VIERNES DE 10:30 A 13:30 Y DE 15:00 A 18:00,4819-7488,CENEI@CANCILLERIA.GOB.AR,WWW.CEI.GOV.AR,BIBLIOTECA,,SECRETARIA DE RELACIONES ECONOMICAS INTERNACIONALES. MINISTERIO DE RELACIONES EXTERIORES Y CULTO.,GENERAL,ESTADO NACIONAL
-34.60144442,-58.38959556,581,BIBLIOTECA DEL COLEGIO DE ABOGADOS DE LA CIUDAD DE BUENOS AIRES,MONTEVIDEO,640,,MONTEVIDEO 640,SAN NICOLAS,COMUNA 01,1019,C1019ABN,LUNES A VIERNES DE 09:00 A 13:00,4371-2690,INFO@COLABOGADOS.ORG.AR,WWW.COLABOGADOS.ORG.AR,BIBLIOTECA,,,GENERAL,ONG
-34.61099094,-58.3734388,599,BIBLIOTECA DEL COLEGIO NACIONAL BUENOS AIRES,BOLIVAR,263,,BOLIVAR 263,MONSERRAT,COMUNA 01,1066,C1066AAE,LUNES A VIERNES DE 09:00 A 17:00,4331-1290 // 4331-9443,BIBLIOTECA@CNBA.UBA.AR,WWW.CNBA.UBA.AR/INSTITUCIONAL/BIBLIOTECA,BIBLIOTECA,,UNIVERSIDAD DE BUENOS AIRES.,GENERAL,ESTADO NACIONAL
-34.61090014,-58.36982282,746,BIBLIOTECA DEL CONSEJO NACIONAL DE LA MUJER,PASEO COLON AV.,275,PISO 5,PASEO COLON AV. 275,MONSERRAT,COMUNA 01,1063,C1063ACC,LUNES A VIERNES DE 09:00 A 20:00,,,WWW.CNM.GOV.AR,BIBLIOTECA,,CONSEJO COORDINADOR DE POLITICAS SOCIALES - PRESIDENCIA DE LA NACION,GENERAL,ESTADO NACIONAL
-34.60300726,-58.37159789,672,BIBLIOTECA DEL GOETHE INSTITUTO BUENOS AIRES,CORRIENTES AV.,343,,CORRIENTES AV. 343,SAN NICOLAS,COMUNA 01,1043,C1043AAD,"LUNES, MARTES, JUEVES DE 14:30 A 19:30 VIERNES DE 12:30 A 16:00 MIERCOLES: CERRADO",4318-5600,BIBL@BUENOSAIRES.GOETHE.ORG,WWW.GOETHE.DE/INS/AR/BUE/WIS/BIB/ESINDEX.HTM,BIBLIOTECA,,,GENERAL,PRIVADO
-34.61028795,-58.37495252,744,BIBLIOTECA DEL INSTITUTO NACIONAL DE ESTADISTICA Y CENSOS (INDEC),"ROCA, JULIO A., PRESIDENTE DIAGONAL SUR AV.",609,PB,"ROCA, JULIO A., PRESIDENTE DIAGONAL SUR AV. 609",MONSERRAT,COMUNA 01,1067,C1067ABB,LUNES A VIERNES DE 09:30 A 16:00,4349-9625,SAOSS@INDEC.MECON.GOV.AR,WWW.INDEC.GOV.AR,BIBLIOTECA,,MINISTERIO DE ECONOMIA Y FINANZAS PUBLICAS.,GENERAL,ESTADO NACIONAL
-34.6162639,-58.36960808,605,BIBLIOTECA DEL INSTITUTO NACIONAL DE LA PROPIEDAD INDUSTRIAL (I.N.P.I.),PASEO COLON AV.,717,,PASEO COLON AV. 717,SAN TELMO,COMUNA 01,1063,C1063ACH,LUNES A VIERNES DE 09:15 A 12:45 Y DE 13:30 A 16:00,4344-4978,INFOBIBLIO@INPI.GOV.AR,HTTP://WWW.INPI.GOV.AR/TEMPLATES/BIBLIOTECA.ASP,BIBLIOTECA,,INSTITUTO NACIONAL DE LA PROPIEDAD INDUSTRIAL. MINISTERIO DE INDUSTRIA.,GENERAL,ESTADO NACIONAL
-34.61493453,-58.37410968,740,"BIBLIOTECA DEL INSTITUTO NACIONAL DE MUSICOLOGIA ""CARLOS VEGA""",MEXICO,564,PB,MEXICO 564,MONSERRAT,COMUNA 01,1097,C1097AAL,LUNES A VIERNES DE 10:00 A 17:00,4361-6520,BIBLIOTECAINM@YAHOO.COM.AR,WWW.INMVEGA.GOV.AR,BIBLIOTECA,FONOTECA / MUSEO VIRTUAL INSTRUMENTOS,SECRETARIA DE CULTURA DE LA NACION,GENERAL,ESTADO NACIONAL
-34.59031766,-58.38130028,536,BIBLIOTECA DEL INSTITUTO SUPERIOR EN LENGUAS VIVAS,"PELLEGRINI, CARLOS",1515,,"PELLEGRINI, CARLOS 1515",RETIRO,COMUNA 01,1011,C1011AAE,,4322-3992,,HTTP://IESLVF.CABA.INFD.EDU.AR/SITIO/,BIBLIOTECA,,MINISTERIO DE EDUCACION.,GENERAL,ESTADO NACIONAL
-34.60289268,-58.38864392,722,"BIBLIOTECA DE MUSICA ARGENTINA ""BLAS PARERA"". SADAIC",LAVALLE,1547,PISO 2,LAVALLE 1547,SAN NICOLAS,COMUNA 01,1048,C1048AAK,LUNES A VIERNES DE 10:00 A 15:00,"4379-8600, INTERNO: 8494",LMARILEF@SADAIC.ORG.AR,WWW.SADAIC.ORG.AR,BIBLIOTECA,,,GENERAL,ONG
-34.6149896,-58.37057667,513,"BIBLIOTECA DE SEGURIDAD SOCIAL ""DR. RICARDO MOLES""",BALCARCE,610,PISO 2,BALCARCE 610,MONSERRAT,COMUNA 01,1064,C1064AAN,LUNES A VIERNES DE 09:30 A 17:30,4015-6037,,WWW.ANSES.GOB.AR/INSTITUCIONAL/BIBLIOTECA/PHP,BIBLIOTECA,,"ADMINISTRACION NACIONAL DE SEGURIDAD SOCIAL (ANSES). MINISTERIO DE TRABAJO, EMPLEO Y SEGURIDAD SOCIAL.",GENERAL,ESTADO NACIONAL
-34.60428575,-58.39131287,673,"BIBLIOTECA ""EMILIO FRES"" DE LA UNIVERSIDAD MUSEO SOCIAL ARGENTINO",CORRIENTES AV.,1723,PISO 15,CORRIENTES AV. 1723,SAN NICOLAS,COMUNA 01,1042,C1042AAD,LUNES A VIERNES DE 08:00 A 21:00 SABADOS DE 09:00 A 12:00,5530-7648,,WWW.UMSA.EDU.AR/BIBLIOTECA,BIBLIOTECA,,,GENERAL,PRIVADO
-34.61792474,-58.35627689,741,"BIBLIOTECA ""ENRIQUE PRINS"" DEL INSTITUTO UNIVERSITARIO NACIONAL DEL ARTE",ESPAÑA AV.,1701,PB,ESPAÑA AV. 1701,PUERTO MADERO,COMUNA 01,1107,C1107CND,CONSULTAR,4361-4419/3790,CARCOVA.MUSEODECALCOS@IUNA.EDU.AR,WWW.IUNA.EDU.AR,BIBLIOTECA,,IUNA - ENTE AUTARTICO,GENERAL,
-34.58429894,-58.37038081,591,BIBLIOTECA ESCUELA SUPERIOR DE GUERRA AEREA,ZANNI PEDRO COMODORO,250,PISO 1 DPTO 107,ZANNI PEDRO COMODORO 250,RETIRO,COMUNA 01,1104,C1104AXF,LUNES Y MARTES DE 07:30 A 14:00 MIERCOLES Y JUEVES DE 07:30 A 16:00 VIERNES DE 07:30 A 14:00,"4311-8973 // 4315-1233, INTERNO: 2347",BIBLIOT@FFA.MIL.AR,HTTP://WWW.FUERZAAEREA.MIL.AR/MISION/ESGA.HTML,BIBLIOTECA,,FUERZA AEREA ARGENTINA. MINISTERIO DE DEFENSA.,GENERAL,ESTADO NACIONAL
-34.60954443,-58.37480305,725,BIBLIOTECA ESTEBAN ECHEVERRIA DE LA LEGISLATURA PORTEÑA,PERU,160,,PERU 160,MONSERRAT,COMUNA 01,1067,C1067AAD,LUNES A VIERNES DE 10:00 A 20:00,4338 3170,BIBLIOTECA@LEGISLATURA.GOV.AR,WWW.LEGISLATURA.GOV.AR,BIBLIOTECA,,LEGISLATURA DE LA CIUDAD DE BUENOS AIRES. DIRECCION GENERAL DE CULTURA.,GENERAL,ESTADO MUNICIPAL
-34.61383656,-58.39069297,575,"BIBLIOTECA ""EZEQUIEL MARTINEZ ESTRADA"" DE LA UNIVERSIDAD FAVALORO",BELGRANO AV.,1720,,BELGRANO AV. 1720,MONSERRAT,COMUNA 01,1093,C1093AAS,LUNES A VIERNES DE 08:30 A  20:30 ENERO Y FEBRERO DE 09:00 A 17:00,4378-1133/34/35,,WWW.FAVALORO.EDU.AR/BIBLIOTECA.HTML,BIBLIOTECA,,,GENERAL,ONG
-34.60812254,-58.38625894,515,BIBLIOTECA FUNDACION DE ALTOS ESTUDIOS EN CIENCIAS COMERCIALES,URUGUAY,57,PISO 9,URUGUAY 57,SAN NICOLAS,COMUNA 01,1015,C1015ABA,LUNES A VIERNES DE 09:00 A 12:00 Y DE 18:00 A 21:00,4123-4700,,WWW.FUNDACION.EDU.AR,BIBLIOTECA,,,GENERAL,PRIVADO
-34.59680018,-58.37838014,520,BIBLIOTECA FUNDACION DE ESTUDIOS BRASILEIROS. LIBRERIA FLOR DO IPE,ESMERALDA,965,,ESMERALDA 965,RETIRO,COMUNA 01,1007,C1007ABK,LUNES A VIERNES DE 09:00 A 21:00 SABADOS DE 10:00 A 12:30,4313-6448/9,LIBRERIA@FUNCEB.ORG.AR,WWW.FUNCEB.ORG.AR,BIBLIOTECA,,,GENERAL,PRIVADO
-34.60646115,-58.38746989,589,"BIBLIOTECA LABORATORIOS ALCON ""CARLOS S. DAMEL""","PERON, JUAN DOMINGO, TTE. GENERAL",1479,,"PERON, JUAN DOMINGO, TTE. GENERAL 1479",SAN NICOLAS,COMUNA 01,1037,C1037ACA,"LUNES, MARTES, JUEVES Y VIERNES DE 09:00 A 17:00 MIERCOLES DE 13:00 A 18:00","4374-5400, INTERNO: 207",BIBLIOTECA@ALCONLABS.COM,WWW.OFTALMOLOGOS.ORG.AR/BIBLIOTECA,BIBLIOTECA,,,GENERAL,ONG
-34.61097792,-58.37571074,742,BIBLIOTECA LEOPOLDO TETTAMANTI,"ROCA, JULIO A., PRESIDENTE DIAGONAL SUR AV.",651,PISO 9,"ROCA, JULIO A., PRESIDENTE DIAGONAL SUR AV. 651",MONSERRAT,COMUNA 01,1067,C1067ABB,LUNES A VIERNES DE 10:00 A 17:00,4349-3494/99,BIBLIOSICYP@INDUSTRIA.GOB.AR,WWW.COMERCIO.GOB.AR,BIBLIOTECA,,MINISTERIO DE INDUSTRIA.,GENERAL,ESTADO NACIONAL
-34.59949212,-58.38913456,25,BIBLIOTECA MANUEL GALVEZ,CORDOBA AV.,1558,PB,CORDOBA AV. 1558,SAN NICOLAS,COMUNA 01,1055,C1055AAS,LUNES  A VIERNES DE 9:00 A 19:00,4812-4723,BIBLIOTECA_GALVEZ@BUENOSAIRES.GOB.AR,HTTP://WWW.BUENOSAIRES.GOV.AR/AREAS/CULTURA/DG_LIBRO,BIBLIOTECA,,"MINISTERIO DE CULTURA - DIRECCION GENERAL DEL LIBRO, BIBLIOTECAS Y PROMOCION DE LA LECTURA",GENERAL,ESTADO MUNICIPAL
-34.60894577,-58.37873162,592,BIBLIOTECA MARISEL MONTOTO RODRIGUEZ,DE MAYO AV.,866,,DE MAYO AV. 866,MONSERRAT,COMUNA 01,1084,C1084AAQ,LUNES A VIERNES DE 09:30 A 21:00 SABADOS DE 09:00 A 13:00 LUNES A VIERNES DE 10:00 A 21:00 (SEDE JUNIN 516),"5217-7878, INTERNO: 275 // 5252 2800, INTERNO: 251",BIBLIOTECA@CAECE.EDU.AR,,BIBLIOTECA,,,GENERAL,PRIVADO
-34.61473095,-58.38808515,27,BIBLIOTECA MARTIN DEL BARCO CENTENERA - ANEXO INFANTIL “ANTOINE DE SAINT-EXUPERY” - ANEXO BIBLIOTECA DE LA MUJER “ALFONSINA STORNI”,REPUBLICA BOLIVARIANA DE VENEZUELA,1538,PB,REPUBLICA BOLIVARIANA DE VENEZUELA 1538,MONSERRAT,COMUNA 01,1095,C1095ABF,LUNES A VIERNES DE 9:00 A 19:00,4381-1271,BIBLIOTECA_CENTENERA@BUENOSAIRES.GOB.AR,HTTP://WWW.BUENOSAIRES.GOV.AR/AREAS/CULTURA/DG_LIBRO,BIBLIOTECA,,"MINISTERIO DE CULTURA - DIRECCION GENERAL DEL LIBRO, BIBLIOTECAS Y PROMOCION DE LA LECTURA",GENERAL,ESTADO MUNICIPAL
-34.60008465,-58.37137799,566,BIBLIOTECA NACIONAL DE METEOROLOGIA “ING. ALFREDO G. GALMARINI”,25 DE MAYO,658,PB Y SS,25 DE MAYO 658,SAN NICOLAS,COMUNA 01,1002,C1002ABN,LUNES A VIERNES DE 10:00 A 15:00,"5167-6767, INTERNO: 18241",BIBLIO@SMN.GOV.AR,HTTP://WWW.SMN.GOV.AR/?MOD=BIBLIO&ID=2,BIBLIOTECA,,SERVICIO METEOROLOGICO NACIONAL. MINISTERIO DE DEFENSA.,GENERAL,ESTADO NACIONAL
-34.60133662,-58.38950883,342,BIBLIOTECA POPULAR ADOLFO SALDIAS,MONTEVIDEO,641,PISO 1,MONTEVIDEO 641,SAN NICOLAS,COMUNA 01,1019,C1019ABM,LUNES A VIERNES DE 14:00 A 19:30,4373-7039,,,BIBLIOTECA,,,GENERAL,ONG
-34.63114555,-58.38625478,2065,BIBLIOTECA POPULAR CAROLINA MUZILLI ASOCIACION CIVIL,15 DE NOVIEMBRE DE 1889,1459,PB,15 DE NOVIEMBRE DE 1889 1459,CONSTITUCION,COMUNA 01,1130,C1130ABG,,,CARLOS1551@YAHOO.COM.AR,,BIBLIOTECA,,,GENERAL,ASOCIACION CIVIL
-34.61763922,-58.37444962,341,BIBLIOTECA POPULAR DR. ARTURO JAURETCHE,PERU,823,,PERU 823,SAN TELMO,COMUNA 01,1068,C1068AAG,LUNES A VIERNES DE 14:00 A 18:00,4362-3348,,,BIBLIOTECA,,,GENERAL,ONG
-34.60244353,-58.37246474,2050,BIBLIOTECA POPULAR J. M. ESTRADA,RECONQUISTA,461,,RECONQUISTA 461,SAN NICOLAS,COMUNA 01,1003,C1003ABI,,4312-0918,,,BIBLIOTECA,,,GENERAL,ASOCIACION CIVIL
-34.60631962,-58.38422422,2045,BIBLIOTECA POPULAR JOAQUIN V. GONZALEZ,"PERON, JUAN DOMINGO, TTE. GENERAL",1242,,"PERON, JUAN DOMINGO, TTE. GENERAL 1242",SAN NICOLAS,COMUNA 01,1038,C1038AAZ,,4382-2585,,,BIBLIOTECA,,,GENERAL,ASOCIACION CIVIL
-34.59364171,-58.38594357,31,BIBLIOTECA RICARDO GÜIRALDES,TALCAHUANO,1261,PB,TALCAHUANO 1261,RETIRO,COMUNA 01,1014,C1014ADA,LUNES A VIERNES DE 12:00 A 19:30,"4812-3118, INTERNO: 224",BIBLIOTECA_GUIRALDES@BUENOSAIRES.GOB.AR,HTTP://WWW.BUENOSAIRES.GOV.AR/AREAS/CULTURA/DG_LIBRO,BIBLIOTECA,,"MINISTERIO DE CULTURA - DIRECCION GENERAL DEL LIBRO, BIBLIOTECAS Y PROMOCION DE LA LECTURA",GENERAL,ESTADO MUNICIPAL
-34.61315423,-58.36620231,739,BIBLIOTECA SAN BENITO ABAD DE LA UNIVERSIDAD CATOLICA ARGENTINA,"MOREAU DE JUSTO, ALICIA AV.",1300,,"MOREAU DE JUSTO, ALICIA AV. 1300",PUERTO MADERO,COMUNA 01,1107,C1107AAZ,LUNES A VIERNES DE 8:00 A 21:00 SABADOS DE 9:00 A 19:00,4349-0200 // 4349-0263,BIBLIOT@UCA.EDU.AR,WWW.UCA.EDU.AR,BIBLIOTECA,,,GENERAL,PRIVADO
-34.61784318,-58.37063728,568,BIBLIOTECA UNIVERSITARIA DEL CINE,"GIUFFRA, JOSE M.,DR.",330,,"GIUFFRA, JOSE M.,DR. 330",SAN TELMO,COMUNA 01,1064,C1064ADD,LUNES A VIERNES DE 10:00 A 22:00,"4300-1413, INTERNO: 112",,WWW.UCINE.EDU.AR,BIBLIOTECA,,,GENERAL,PRIVADO
-34.60415199,-58.38853378,572,"BIBLIOTECA ""UTOPIA"" DEL CENTRO CULTURAL DE LA COOPERACION",CORRIENTES AV.,1543,PISO 4,CORRIENTES AV. 1543,SAN NICOLAS,COMUNA 01,1042,C1042AAB,LUNES A VIERNES DE 12:00 A 18:00,5077-8000,,WWW.CENTROCULTURAL.COOP/BIBLIOTECA-UTOPIA.HTML,BIBLIOTECA,,,GENERAL,PRIVADO
-34.61605839,-58.37249052,574,BIBLIOTECA Y ARCHIVO DOCUMENTAL DEL INSTITUTO NACIONAL DE TECNOLOGIA AGROPECUARIA (INTA),CHILE,460,PB,CHILE 460,SAN TELMO,COMUNA 01,1098,C1098AAJ,LUNES A VIERNES DE 09:00 A 17:00,4339-0555,,WWW.INTA.GOV.AR/INFO/BIBLIO/BIBCENTRO.HTM,BIBLIOTECA,,"INSTITUTO NACIONAL DE TECNOLOGIA AGROPECUARIA (INTA). MINISTERIO DE AGRICULTURA, GANADERIA Y PESCA.",GENERAL,ESTADO NACIONAL
-34.60455047,-58.37456643,527,BIBLIOTECA Y CENTRO ADMNISTRATIVO DOCUMENTAL SEDRONAR,SARMIENTO,546,2 DO SUBSUELO,SARMIENTO 546,SAN NICOLAS,COMUNA 01,1041,C1041AAL,LUNES A VIERNES 09:00 A 17:00,4320-1260,CAD@SEDRONAR.GOV.AR,WWW.SEDRONAR.GOV.AR,BIBLIOTECA,,SECRETARIA DE PROGRAMACION PARA LA PREVENCION DE LA DROGADICCION Y LA LUCHA CONTRA EL NARCOTRAFICO (SEDRONAR).,GENERAL,ESTADO NACIONAL
-34.61112859,-58.37484583,1307,BIDOU DE LAS LUCES,PERU,269,,PERU 269,MONSERRAT,COMUNA 01,1067,C1067AAE,,4331-1466 // 4343-1041,,,BAR CULTURAL,,,,PRIVADO
-34.6017234,-58.38716964,1188,BOLSA DEL LIBRO CUARTO INTERMEDIO,TUCUMAN,1438,PB DPTO 4,TUCUMAN 1438,SAN NICOLAS,COMUNA 01,1050,C1050AAD,,4372-9936,,,LIBRERIA,,,GENERAL,PRIVADO
-34.60612569,-58.37502524,141,BOSTON CITY,FLORIDA,165,,FLORIDA 165,SAN NICOLAS,COMUNA 01,1005,C1005AAC,,4343-1438,,,BAR NOTABLE,,,GENERAL,PRIVADO
-34.6025091,-58.37971004,1535,BRANCA JORGE D,LAVALLE,914,,LAVALLE 914,SAN NICOLAS,COMUNA 01,1047,C1047AAT,,4322-1129,,,DISQUERIA,,,GENERAL,PRIVADO
-34.62530893,-58.37083484,2163,BRITANICO,BRASIL AV.,399,,BRASIL AV. 399,SAN TELMO,COMUNA 01,1154,C1154AAC,,,,,BAR IDENTIFICADO,,,,
-34.59217983,-58.38006434,688,BRITISH ART CENTRE,SUIPACHA,1333,,SUIPACHA 1333,RETIRO,COMUNA 01,1011,C1011ACC,MARTES A VIERNES DE 15:00 A 21:00,4393-6941,INFORMES@BRITISHARTCENTRE.ORG.AR,WWW.BRITISHARTCENTRE.ORG.AR,CENTRO CULTURAL,,,GENERAL,PRIVADO
-34.60371381,-58.38317048,314,BROADWAY I  Y II,CORRIENTES AV.,1155,,CORRIENTES AV. 1155,SAN NICOLAS,COMUNA 01,1043,C1043AAL,LUNES A DOMINGOS 10:00 A 20:00,4382-2201,,,"ESPACIO ESCENICO (TEATRO, MUSICA Y DANZA)",,,GENERAL,PRIVADO
-34.60392105,-58.3907817,1191,BRUJAS,RODRIGUEZ PEÑA,429,,RODRIGUEZ PEÑA 429,SAN NICOLAS,COMUNA 01,1020,C1020ADI,LUNES A SABADOS DE 10:30 A 20:30,4373-7100,LIBRERIA_BRUJAS@HOTMAIL.COM,,LIBRERIA,,,GENERAL,PRIVADO
-34.61709036,-58.38299411,1192,BUENOS AIRES BOOKS,SALTA,742,,SALTA 742,MONSERRAT,COMUNA 01,1074,C1074AAP,LUNES A VIERNES 10 A 19 / SABADO DE 10 A 16,4382-9565,SALTA@BUENOSAIRESBOOKS.COM.AR,,LIBRERIA,,,GENERAL,PRIVADO
-34.59681634,-58.37697383,1270,BUENOS AIRES MON AMOUR CINE CLUB,MAIPU,960,,MAIPU 960,RETIRO,COMUNA 01,1006,C1006ACN,,,INFO@CINECLUBMONAMOUR.COM,WWW.CINECLUBMONAMOUR.COM,CINE,,,GENERAL,PRIVADO
-34.60771898,-58.38832417,647,BUKOWSKI BAR,"MITRE, BARTOLOME",1525,,"MITRE, BARTOLOME 1525",SAN NICOLAS,COMUNA 01,1037,C1037ABC,LUNES A MIERCOLES DE 08:00 A 24:00 JUEVES A SABADOS DE 08:00 A 02:00,4372-2843,BUKOWSKIBAR@YAHOO.COM,,BAR CULTURAL,,,ADULTOS,PRIVADO
-34.60340864,-58.36707576,385,BUQUE MUSEO ARA CORBETA URUGUAY,"MOREAU DE JUSTO, ALICIA AV.",500,,"MOREAU DE JUSTO, ALICIA AV. 500",PUERTO MADERO,COMUNA 01,1107,C1107AAJ,LUNES A DOMINGOS DE 10:00 A 19:00,4314-1090,,HTTP://WWW.ARA.MIL.AR/PAG.ASP?IDITEM=113,MUSEO,,ARMADA ARGENTINA. MINISTERIO DE DEFENSA.,GENERAL,ESTADO NACIONAL
-34.6093781,-58.36639182,493,BUQUE MUSEO FRAGATA ARA PRESIDENTE SARMIENTO,"MOREAU DE JUSTO, ALICIA AV.",980,,"MOREAU DE JUSTO, ALICIA AV. 980",PUERTO MADERO,COMUNA 01,1107,C1107AAT,LUNES A DOMINGOS DE 10:00 19:00,4334-9386,,HTTP://WWW.ARA.MIL.AR/PAG.ASP?IDITEM=112,MUSEO,,ARMADA ARGENTINA. MINISTERIO DE DEFENSA.,GENERAL,ESTADO NACIONAL
-34.60864097,-58.37548223,2142,CAFE DE LA JUNTA DE 1810,DE MAYO AV.,639,,DE MAYO AV. 639,MONSERRAT,COMUNA 01,1084,C1084AAB,,,,,BAR IDENTIFICADO,,,,
-34.62055305,-58.37139071,2162,CAFE DORREGO,DEFENSA,1098,,DEFENSA 1098,SAN TELMO,COMUNA 01,1065,C1065AAT,,,,,BAR IDENTIFICADO,,,,
-34.61002853,-58.38683963,654,CAFE LITERARIO OSVALDO BAYER,"YRIGOYEN, HIPOLITO",1440,,"YRIGOYEN, HIPOLITO 1440",MONSERRAT,COMUNA 01,1089,C1089AAB,,4382-3261,,,BAR CULTURAL,,,GENERAL,PRIVADO
-34.60194027,-58.39112853,183,CAFE MAR AZUL,TUCUMAN,1700,,TUCUMAN 1700,SAN NICOLAS,COMUNA 01,1050,C1050AAH,,4374-0307,,,BAR NOTABLE,,,GENERAL,PRIVADO
-34.59175695,-58.37452242,172,CAFE RETIRO,"RAMOS MEJIA, JOSE MARIA, DR. AV.",1358,,"RAMOS MEJIA, JOSE MARIA, DR. AV. 1358",RETIRO,COMUNA 01,1104,C1104AJN,LUNES A SABADOS DE 8:30 A 21:00,4516-0412/0902,RETIRO@AREAS.COM.AR,,BAR NOTABLE,,,GENERAL,PRIVADO
-34.60882556,-58.37812207,181,CAFE TORTONI,DE MAYO AV.,825,,DE MAYO AV. 825,MONSERRAT,COMUNA 01,1084,C1084AAD,,4342-4328,TORTONI@CAFETORTONI.COM.AR,WWW.CAFETORTONI.COM.AR,BAR NOTABLE,,,GENERAL,PRIVADO
-34.61054004,-58.39176109,126,CAFE VICTORIA,ENTRE RIOS AV.,114,,ENTRE RIOS AV. 114,MONSERRAT,COMUNA 01,1079,C1079ABO,,4372-2754,VICTORIAPIZZACAFE@GMAIL.COM,,BAR NOTABLE,,,GENERAL,PRIVADO
-34.60891494,-58.38057056,2141,CAFE Y BAR RONAS,DE MAYO AV.,999,,DE MAYO AV. 999,MONSERRAT,COMUNA 01,1084,C1084AAE,,,,,BAR IDENTIFICADO,,,,
-34.62809333,-58.37045341,1638,CALESITA DE PARQUE LEZAMA,DEFENSA,0,,DEFENSA Y FINOCHIETTO ENRIQUE DR.,SAN TELMO,COMUNA 01,0,0,TODOS LOS DIAS DE 10:00 A 12:00 Y DE 14:00 A 19:30,,,,CALESITA,,,NIÑOS,PRIVADO
-34.62098366,-58.39148552,1611,CALESITA EL PATO,ENTRE RIOS AV.,1056,,ENTRE RIOS AV. 1056,CONSTITUCION,COMUNA 01,1080,C1080ABR,TODOS LOS DIAS DE 16:00A 20:00,,,,CALESITA,,,NIÑOS,PRIVADO
-34.60234302,-58.37830219,1536,CALVO Y RODRIGUEZ JOSE ANTONIO,LAVALLE,809,PB,LAVALLE 809,SAN NICOLAS,COMUNA 01,1047,C1047AAQ,,4328-1756,,,DISQUERIA,,,GENERAL,PRIVADO
-34.61882394,-58.38727543,504,CANDILEJAS TANGO,ESTADOS UNIDOS,1500,,ESTADOS UNIDOS 1500,CONSTITUCION,COMUNA 01,1101,C1101ABD,LUNES A DOMINGOS DE 20:00 A 24:00,4304-0885 / 3241,,WWW.CANDILEJASTANGO.COM,MILONGA Y/O TANGUERIA,,,GENERAL,PRIVADO
-34.60376152,-58.38398944,1537,CANTACLARO,CORRIENTES AV.,1217,PB,CORRIENTES AV. 1217,SAN NICOLAS,COMUNA 01,1043,C1043AAM,,4382-0843,,,DISQUERIA,,,GENERAL,PRIVADO
-34.60434888,-58.38998669,1538,CARLOS CORONATI,CORRIENTES AV.,1644,PB,CORRIENTES AV. 1644,SAN NICOLAS,COMUNA 01,1042,C1042AAP,,4382-6907,,,DISQUERIA,,,GENERAL,PRIVADO
-34.58910531,-58.38407858,1634,CARROUSEL CLASICO,POSADAS,0,,POSADAS Y LIBERTAD,RETIRO,COMUNA 01,0,0,TODOS LOS DIAS DE 10:00 A 23:00,,,,CALESITA,,,NIÑOS,PRIVADO
-34.60965532,-58.38895162,1620,CARROUSEL DE LOS NIÑOS DE LA PLAZA DEL CONGRESO,"YRIGOYEN, HIPOLITO",0,,"YRIGOYEN, HIPOLITO Y SAENZ PEÑA, LUIS, PRES.",MONSERRAT,COMUNA 01,0,0,TODOS LOS DIAS DE 9:00 A 22:00,,,,CALESITA,,,NIÑOS,PRIVADO
-34.6195843,-58.37005626,450,CASA DE CASTAGNINO,BALCARCE,1016,,BALCARCE 1016,SAN TELMO,COMUNA 01,1064,C1064AAV,,4362-5393,GALERIACASTAGNINO@GMAIL.COM,WWW.ALVAROCASTAGNINO.COM.AR,GALERIA DE ARTE,,,GENERAL,PRIVADO
-34.6113022,-58.38611779,879,CASA DE GALICIA (CLUB ESPAÑOL),SAN JOSE,224,,SAN JOSE 224,MONSERRAT,COMUNA 01,1076,C1076AAF,MARTES A JUEVES 15:00 A 23:00,4381-5215,,,MILONGA Y/O TANGUERIA,,,GENERAL,PRIVADO
-34.60848892,-58.37440101,34,CASA DE LA CULTURA,DE MAYO AV.,575,,DE MAYO AV. 575,MONSERRAT,COMUNA 01,1084,C1084AAA,MARTES A DOMINGOS DE 14:00 A 20:00,4323-9669,SUBSECPATRIMONIOCULTURAL@BUENOSAIRES.GOB.AR,HTTP://WWW.BUENOSAIRES.GOV.AR/AREAS/CULTURA/CASA_CULTURA/,CENTRO CULTURAL,,MINISTERIO DE CULTURA - SUBSECRETARIA DE PATRIMONIO CULTURAL,GENERAL,ESTADO MUNICIPAL
-34.6132841,-58.37323693,1,CASA DEL HISTORIADOR - ARCHIVO HISTORICO DE LA CIUDAD DE BUENOS AIRES,BOLIVAR,466,PB,BOLIVAR 466,MONSERRAT,COMUNA 01,1066,C1066AAJ,LUNES A VIERNES DE 9:00 A 17:00,4339-1900 // 4339-1910,ARCHIVOHISTORICO@BUENOSAIRES.GOB.AR,HTTP://WWW.BUENOSAIRES.GOV.AR/AREAS/CULTURA/PATRIMONIO_INSTITUTO_HISTORICO/?MENU_ID=29468/,ARCHIVO,,MINISTERIO DE CULTURA - DIRECCION GENERAL DE PATRIMONIO E INSTITUTO HISTORICO,GENERAL,ESTADO MUNICIPAL
-34.61000842,-58.38654109,109,CASA HISTORICA ISAAC FERNANDEZ BLANCO,"YRIGOYEN, HIPOLITO",1420,,"YRIGOYEN, HIPOLITO 1420",MONSERRAT,COMUNA 01,1089,C1089AAB,SABADOS Y DOMINGOS DE 11:00 A 17:00,4383-9797 // 4381-4685,MIFB_PRENSA@BUENOSAIRES.GOB.AR,HTTP://WWW.MUSEOFERNANDEZBLANCO.BUENOSAIRES.GOV.AR,MUSEO,,MINISTERIO DE CULTURA - DIRECCION GENERAL DE MUSEOS,GENERAL,ESTADO MUNICIPAL
-34.61816998,-58.37590944,622,CASAL DE CATALUNYA,CHACABUCO,863,,CHACABUCO 863,SAN TELMO,COMUNA 01,1069,C1069AAQ,LUNES A SABADOS DE 09:00 A 20:00,4300-4141,INFO@CASAL.ORG.AR,WWW.CASAL.ORG.AR,"ESPACIO ESCENICO (TEATRO, MUSICA Y DANZA)",,,GENERAL,PRIVADO
-34.60277185,-58.37390951,859,CASA PISCITELLI,SAN MARTIN,450,,SAN MARTIN 450,SAN NICOLAS,COMUNA 01,1004,C1004AAJ,,4394-1992,INFO@PISCITELLI.COM,WWW.PISCITELLI.COM,DISQUERIA,,,GENERAL,PRIVADO
-34.59779863,-58.37831413,1837,CATERVA LIBROS,ESMERALDA,887,,ESMERALDA 887,RETIRO,COMUNA 01,1007,C1007ABI,,4315-0988,CATERVALIBROS@GMAIL.COM,WWW.FACEBOOK.COM/CATERVA.LIBROS,LIBRERIA,,,GENERAL,PRIVADO
-34.60280377,-58.38508266,1272,CATHEDRA JURIDICA,LAVALLE,1292,,LAVALLE 1292,SAN NICOLAS,COMUNA 01,1048,C1048AAF,4382-4780 / 0295,,INFO@CATHEDRAJURIDICA.COM.AR,WWW.CATHEDRAJURIDICA.COM.AR,LIBRERIA,,,GENERAL,PRIVADO
-34.60397484,-58.3847962,1540,CD DISQUERIA,CORRIENTES AV.,1274,,CORRIENTES AV. 1274,SAN NICOLAS,COMUNA 01,1043,C1043AAZ,,4381-0754,,,DISQUERIA,,,GENERAL,PRIVADO
-34.59837086,-58.38403139,1541,CENTOMAR S.A.,LIBERTAD,877,,LIBERTAD 877,RETIRO,COMUNA 01,1012,C1012AAQ,,4816-6260,,,DISQUERIA,,,GENERAL,PRIVADO
-34.61436867,-58.36890343,587,CENTRO BIBLIOGRAFICO DE ENFERMEDADES ENDEMICAS,PASEO COLON AV.,568,PISO 6,PASEO COLON AV. 568,MONSERRAT,COMUNA 01,1063,C1063ACS,LUNES A VIERNES DE 10:00 A 15:00,4331-7732 // 4017-2330,,,BIBLIOTECA,,,GENERAL,ONG
-34.59980249,-58.37469448,659,CENTRO CULTURAL BORGES,VIAMONTE,525,,VIAMONTE 525,SAN NICOLAS,COMUNA 01,1053,C1053ABK,LUNES A SABADOS DE 20:00 A 21:00 DOMINGOS DE 12:00 A 21:00,5555-5338/5339,INFO@CCBORGES.ORG.AR,WWW.CCBORGES.ORG.AR,CENTRO CULTURAL,,,GENERAL,PRIVADO
-34.61363555,-58.37150421,365,CENTRO CULTURAL CARAS Y CARETAS,REPUBLICA BOLIVARIANA DE VENEZUELA,370,,REPUBLICA BOLIVARIANA DE VENEZUELA 370,MONSERRAT,COMUNA 01,1095,C1095AAH,LUNES A DOMINGOS DE 11:00 A 19:00,5354-6618,CENTROCULTURAL@CARASYCARETAS.ORG.AR,WWW.CARASYCARETAS.ORG,CENTRO CULTURAL,,,GENERAL,PRIVADO
-34.60236043,-58.37520308,683,CENTRO CULTURAL DE ESPAÑA EN BUENOS AIRES,FLORIDA,493,,FLORIDA 493,SAN NICOLAS,COMUNA 01,1005,C1005AAI,LUNES A VIERNES DE 10:00 A 20:00,4312-4314/5850,INFO@CCEBA.ORG.AR,WWW.CCEBA.ORG.AR,CENTRO CULTURAL,,,GENERAL,PRIVADO
-34.60415199,-58.38853378,661,CENTRO CULTURAL DE LA COOPERACION FLOREAL GORINI,CORRIENTES AV.,1543,,CORRIENTES AV. 1543,SAN NICOLAS,COMUNA 01,1042,C1042AAB,LUNES A DOMINGOS DE 10:00 A 22:00,5077-8000,SECRETARIA@CENTROCULTURAL.COOP,WWW.CENTROCULTURAL.COOP,CENTRO CULTURAL,,,GENERAL,PRIVADO
-34.60673122,-58.39187488,695,CENTRO CULTURAL DEL ESQUINAZO,"PERON, JUAN DOMINGO, TTE. GENERAL",1785,PISO 3,"PERON, JUAN DOMINGO, TTE. GENERAL 1785",SAN NICOLAS,COMUNA 01,1037,C1037ACG,,4375-6309/6217,ELESQUINAZO2002@YAHOO.COM.AR,WWW.ELESQUINAZO.COM.AR,CENTRO CULTURAL,,,GENERAL,PRIVADO
-34.59798377,-58.38298788,682,CENTRO CULTURAL E INFORMATIVO DE LA EMBAJADA DE JAPON,PARAGUAY,1127,,PARAGUAY 1127,RETIRO,COMUNA 01,1057,C1057AAQ,LUNES A VIERNES DE 09:00 A 13:00 Y DE 14:00 A 17:00,4816-3111/1609,CENTRO-INFO@JAPAN.ORG.AR,WWW.AR.EMB-JAPAN.GO.JP,CENTRO CULTURAL,,,GENERAL,PRIVADO
-34.60709005,-58.38544325,701,CENTRO CULTURAL ENRIQUE SANTOS DISCEPOLO,"RIVAROLA, RODOLFO, DR.",154,,"RIVAROLA, RODOLFO, DR. 154",SAN NICOLAS,COMUNA 01,1015,C1015AAB,,4865-6929,CENTROCULTURAL@DISCEPOLO.ORG.AR,WWW.DISCEPOLO.ORG.AR,CENTRO CULTURAL,,,GENERAL,PRIVADO
-34.61571976,-58.36589638,708,CENTRO CULTURAL FACULTAD DE FILOSOFIA Y LETRAS DE LA PONTIFICIA UNIVERSIDAD CATOLICA,"MOREAU DE JUSTO, ALICIA AV.",1500,,"MOREAU DE JUSTO, ALICIA AV. 1500",PUERTO MADERO,COMUNA 01,1107,C1107AFD,LUNES A VIERNES DE 10:30 A 19:00,4338-0844,CENTRO-CULTURAL@UCA.EDU.AR,WWW.UCA.EDU.AR,CENTRO CULTURAL,,,GENERAL,PRIVADO
-34.62169799,-58.37029278,62,CENTRO CULTURAL FORTUNATO LACAMERA,SAN JUAN AV.,353,,SAN JUAN AV. 353,SAN TELMO,COMUNA 01,1147,C1147AAB,LUNES A VIERNES DE 17:30 A 21:30,4361-6823,CCFORTUNATOLACAMERA@HOTMAIL.COM,HTTP://WWW.BUENOSAIRES.GOB.AR/AREAS/CULTURA/CEN_CULTURALES/PROG_BARRIOS.PHP,CENTRO CULTURAL,,MINISTERIO DE CULTURA - DIRECCION GENERAL DE PROMOCION CULTURAL,GENERAL,ESTADO MUNICIPAL
-34.60502077,-58.37092226,707,"CENTRO CULTURAL ""FRANCISCO PACO URONDO""",25 DE MAYO,221,PB,25 DE MAYO 221,SAN NICOLAS,COMUNA 01,1002,C1002ABE,LUNES A VIERNES DE 10:00 A 19:00,4342-5922,URONDO@FILO.UBA.AR,WWW.FILO.UBA.AR/CONTENIDOS/SECRETARIAS/SEUBE/PACOURONDO,CENTRO CULTURAL,,FACULTAD DE FILOSOFIA Y LETRAS. UNIVERSIDAD DE BUENOS AIRES.,GENERAL,ESTADO NACIONAL
-34.60537252,-58.38858215,38,CENTRO CULTURAL GENERAL SAN MARTIN,SARMIENTO,1551,,SARMIENTO 1551,SAN NICOLAS,COMUNA 01,1042,C1042ABC,LUNES A VIERNES DE 10:00 A 21:00,4374-1251 AL 59,CCGSM@BUENOSAIRES.GOB.AR,HTTP://WWW.CENTROCULTURALSANMARTIN.COM,CENTRO CULTURAL,,MINISTERIO DE CULTURA - CENTRO CULTURAL GENERAL SAN MARTIN,GENERAL,ESTADO MUNICIPAL
-34.6197324,-58.37869473,1697,CENTRO CULTURAL HORUS,"CALVO, CARLOS",0,,"CALVO, CARLOS Y TACUARI",CONSTITUCION,COMUNA 01,0,0,,4307-5756,CULTHORUS@GMAIL.COM,HTTP://CULTURALHORUS.BLOGSPOT.COM,CENTRO CULTURAL,,,GENERAL,PRIVADO
-34.60423984,-58.36937256,2171,CENTRO CULTURAL KIRCHNER,SARMIENTO,151,,SARMIENTO 151,SAN NICOLAS,COMUNA 01,1041,C1041AAC,JUEVES A DOMINGOS 14:00 A 20:00HS,0800-3339300,,HTTP://WWW.CULTURALKIRCHNER.GOB.AR/,CENTRO CULTURAL,,PRESIDENCIA DE LA NACION,GENERAL,ESTADO NACIONAL
-34.60189962,-58.39172813,1246,CENTRO CULTURAL LA MOROCHA,TUCUMAN,1735,,TUCUMAN 1735,SAN NICOLAS,COMUNA 01,1050,C1050AAI,,,,HTTP://LAMOROCHACENTROCULTURAL.BLOGSPOT.COM.AR,CENTRO CULTURAL,,,GENERAL,PRIVADO
-34.61414833,-58.37186264,74,CENTRO CULTURAL PLAZA DEFENSA,DEFENSA,535,,DEFENSA 535,MONSERRAT,COMUNA 01,1065,C1065AAI,LUNES A VIERNES DE 13:00 A 21:00,4342-6610,CCPLAZADEFENSA@BUENOSAIRES.GOB.AR,HTTP://WWW.BUENOSAIRES.GOB.AR/AREAS/CULTURA/CEN_CULTURALES/PROG_BARRIOS.PHP,CENTRO CULTURAL,,MINISTERIO DE CULTURA - DIRECCION GENERAL DE PROMOCION CULTURAL,GENERAL,ESTADO MUNICIPAL
-34.62615796,-58.37105637,1209,CENTRO CULTURAL TORQUATO TASSO,DEFENSA,1575,,DEFENSA 1575,SAN TELMO,COMUNA 01,1143,C1143AAG,,4307-6506,INFO@TORQUATOTASSO.COM.AR,WWW.TORQUATOTASSO.COM.AR,BAR CULTURAL,,,GENERAL,PRIVADO
-34.59766705,-58.3742059,526,"CENTRO DE DOCUMENTACION DEL CENTRO FEDERAL DE INVERSIONES CFI ""DR. MANUEL BELGRANO""",SAN MARTIN,871,,SAN MARTIN 871,RETIRO,COMUNA 01,1004,C1004AAQ,,4317-0700,,WWW.CFIRED.ORG.AR,BIBLIOTECA,,,GENERAL,ONG
-34.61318923,-58.38376184,1585,"CENTRO DE DOCUMENTACION ""DR. SERGIO D"" CONF. MEDICA REPUBLICA ARGENTINA",BELGRANO AV.,1235,PISO 1,BELGRANO AV. 1235,MONSERRAT,COMUNA 01,1093,C1093AAA,LUNES A VIERNES DE 10:00 A 16:00,48383-8414 / 5511-8467,CONRA@COMFEDERACIONMEDICA.COM.AR,WWW.CONRA.ORG.AR,BIBLIOTECA,,,GENERAL,ONG
-34.60568575,-58.37418265,606,"CENTRO DE DOCUMENTACION E INFORMACION ""DR. JORGE EDUARDO COLL""","PERON, JUAN DOMINGO, TTE. GENERAL",524,PISO 1,"PERON, JUAN DOMINGO, TTE. GENERAL 524",SAN NICOLAS,COMUNA 01,1038,C1038AAL,LUNES A VIERNES DE 08:30 A 16:30,4335-7188 // 4338-5800,,HTTP://WWW.DESARROLLOSOCIAL.GOB.AR/,BIBLIOTECA,,"SECRETARIA NACIONAL DE NIÑEZ, ADOLESCENCIA Y FAMILIA. MINISTERIO DE DESARROLLO SOCIAL.",GENERAL,ESTADO NACIONAL
-34.60927675,-58.3697039,745,CENTRO DE DOCUMENTACION E INVESTIGACION ARQUITECTURA PUBLICA,PASEO COLON AV.,171,PISO 1 DPTO 101,PASEO COLON AV. 171,MONSERRAT,COMUNA 01,1063,C1063ACB,LUNES A VIERNES DE 10:00 A 16:00,4349-8169 // 6885-6868,CEDIAP@MECON.GOV.AR,HTTP://CDI.MECON.GOV.AR/,ARCHIVO,,MINISTERIO DE ECONOMIA Y FINANZAS PUBLICAS.,GENERAL,ESTADO NACIONAL
-34.59852495,-58.37180137,514,CENTRO DE INFORMACION TECHINT,CORDOBA AV.,320,PISO 4,CORDOBA AV. 320,SAN NICOLAS,COMUNA 01,1054,C1054AAP,LUNES A VIERNES DE 09:00 A 18:00,4018-5669,BAICEIN@TECHINT.NET,,BIBLIOTECA,,,GENERAL,PRIVADO
-34.6011237,-58.37718213,590,CENTRO DE INFORMACION Y DOCUMENTACION EN ONCOLOGIA,TUCUMAN,731,PISO 3 DPTO F,TUCUMAN 731,SAN NICOLAS,COMUNA 01,1049,C1049AAO,LUNES A VIERNES DE 10:00 A 17:00,4322-8405,ASARCA@INTRAMED.COM.AR,WWW.ASARCA.ORG.AR,ARCHIVO,,,GENERAL,ONG
-34.62361826,-58.37814269,767,CENTRO DE INVESTIGACION Y EXPERIMENTACION EN VIDEO Y CINE (CIEVYC),COCHABAMBA,868,,COCHABAMBA 868,CONSTITUCION,COMUNA 01,1150,C1150AAN,,4300-7230/1892 // 4307-6170/7297,INFO@CINECIEVYC.COM.AR,WWW.CINECIEVYC.COM.AR,ESPACIO DE FORMACION (SEMINARIOS Y TALLERES),,,ADULTOS,PRIVADO
-34.60942842,-58.36032202,110,CENTRO DE MUSEOS DE BUENOS AIRES (DIRECCION GENERAL DE MUSEOS),DE LOS ITALIANOS AV.,0,,"DE LOS ITALIANOS AV. Y VILLAFLOR, AZUCENA",PUERTO MADERO,COMUNA 01,0,0,"LUNES A VIERNES DE 10:00 A 19:00 SABADOS, DOMINGOS Y FERIADOS DE 10:00 A 20:00",4516-0941 AL 49,,HTTP://WWW.BUENOSAIRES.GOB.AR/MUSEOS/CIUDAD,MUSEO,,MINISTERIO DE CULTURA - DIRECCION GENERAL DE MUSEOS,GENERAL,ESTADO MUNICIPAL
-34.61130038,-58.37244465,1766,CENTRO LATINOAMERICANO DE CREACION E INVESTIGACION TEATRAL (CELCIT)LCIT,MORENO,431,,MORENO 431,MONSERRAT,COMUNA 01,1091,C1091AAI,,4342-1026,CORREO@CELCIT.ORG.AR,WWW.CELCIT.ORG.AR,"ESPACIO ESCENICO (TEATRO, MUSICA Y DANZA)",,,GENERAL,ASOCIACION CIVIL
-34.60592575,-58.38644949,580,CENTRO LATINOAMERICANO DE DOCUMENTACION INFORMATICA Y ELECTRONICA,URUGUAY,252,PISO 2 DPTO D,URUGUAY 252,SAN NICOLAS,COMUNA 01,1015,C1015ABF,LUNES A VIERNES DE 10:00 A 16:00,4371-5755,INFORMACION@SADIO.ORG.AR,WWW.SADIO.ORG.AR,BIBLIOTECA,,,GENERAL,ONG
-34.61583007,-58.38028198,1273,CERTEZA,"IRIGOYEN, BERNARDO DE",654,,"IRIGOYEN, BERNARDO DE 654",MONSERRAT,COMUNA 01,1072,C1072AAN,LUNES A VIERNES DE 10 A 19 / SABADO DE 9:30 A 13:30,4334-8278 / 4345-5931,CAPITAL@LIBRERIASCERTEZA.COM,WWW.LIBRERIASCERTEZA.BLOGSPOT.COM,LIBRERIA,,,GENERAL,PRIVADO
-34.61848509,-58.37481055,1037,CICLO 3,ESTADOS UNIDOS,629,,ESTADOS UNIDOS 629,SAN TELMO,COMUNA 01,1101,C1101AAM,,4307-1581,CONTACTO@CICLO3.COM.AR,WWW.CICLO3.COM.AR,SELLO DISCOGRAFICO,,,GENERAL,PRIVADO
-34.62417544,-58.378392,1838,CIENCIA Y TECNICA SERVICIOS BIBLIOGRAFICOS,TACUARI,1334,PISO 7 DPTO A,TACUARI 1334,CONSTITUCION,COMUNA 01,1139,C1139AAD,,4300-4253,LIBROS@CIENCIA-TECNICA.COM.AR,,LIBRERIA,,,GENERAL,PRIVADO
-34.62361826,-58.37814269,1484,CIEVYC CINE,COCHABAMBA,868,,COCHABAMBA 868,CONSTITUCION,COMUNA 01,1150,C1150AAN,LUNES A VIERNES DE 9 A 22,4300-7230 / 1892,INFO@CINECIEVYC.COM.AR,WWW.CINECIEVYC.COM.AR,ESPACIO DE FORMACION (SEMINARIOS Y TALLERES),,,GENERAL,PRIVADO
-34.59298815,-58.38440988,1840,CINCO ESQUINAS,LIBERTAD,1293,,LIBERTAD 1293,RETIRO,COMUNA 01,1012,C1012AAY,,4811-9452,LIBRERIA5E@GMAIL.COM,,LIBRERIA,,,GENERAL,PRIVADO
-34.60315582,-58.38287786,1206,CINE ARTEPLEX CENTRO,"SAENZ PEÑA, ROQUE, PRES. DIAGONAL NORTE AV.",1150,,"SAENZ PEÑA, ROQUE, PRES. DIAGONAL NORTE AV. 1150",SAN NICOLAS,COMUNA 01,1035,C1035AAT,LUNES A DOMINGOS DE 13:00 A 22:00,4382-7934,,WWW.CINESARTEPLEX.COM/ENCARTEL-ACENTRO.PHP,CINE,,,GENERAL,PRIVADO
-34.6040955,-58.38679925,635,CINE LORCA,CORRIENTES AV.,1420,,CORRIENTES AV. 1420,SAN NICOLAS,COMUNA 01,1042,C1042AAN,LUNES A DOMINGOS DE 13:00 A 23:00,4371-5017,,,CINE,,,GENERAL,PRIVADO
-34.62155818,-58.36530081,1073,CINEMARK PUERTO MADERO,"MOREAU DE JUSTO, ALICIA AV.",1960,,"MOREAU DE JUSTO, ALICIA AV. 1960",PUERTO MADERO,COMUNA 01,1107,C1107AFN,LAS BOLETERIAS ABREN SUS PUERTAS DE LUNES A DOMINGOS 15 MINUTOS ANTES DEL INICIO DE LA PRIMER FUNCION,0800-222-CINE (2463),,WWW.CINEMARK.COM.AR/COMPLEJOS/2-CINEMARK-PUERTO-MADERO,CINE,,,GENERAL,PRIVADO
-34.60240817,-58.37778116,674,CINE MONUMENTAL LAVALLE,LAVALLE,780,,LAVALLE 780,SAN NICOLAS,COMUNA 01,1047,C1047AAP,LUNES A DOMINGOS DE 12:00 A 23:00,4393-9008,,WWW.CINESMULTIPLEX.COM.AR/CONTENT/INDEX.ASPX?IDSECTION=6,CINE,,,GENERAL,PRIVADO
-34.60170526,-58.36833036,976,CINE OJO,LAVALLE,3,PISO D,LAVALLE 3,SAN NICOLAS,COMUNA 01,1047,C1047AAA,,4371-6449,CINEOJO@CINEOJO.COM.AR,WWW.CINEOJO.COM.AR,PRODUCTORA AUDIOVISUAL,,,ADULTOS,PRIVADO
-34.6041776,-58.38886492,313,CINE PREMIER,CORRIENTES AV.,1565,,CORRIENTES AV. 1565,SAN NICOLAS,COMUNA 01,1042,C1042AAB,MIERCOLES A DOMINGOS DE 10:00 A 22:00,4374-2113,,,CINE,,,GENERAL,PRIVADO
-34.61777505,-58.37037325,1841,CINE SI,"GIUFFRA, JOSE M.,DR.",311,,"GIUFFRA, JOSE M.,DR. 311",SAN TELMO,COMUNA 01,1064,C1064ADC,LUNES A VIERNES DE 10:00 A 19:30 SABADOS DE 14:00 A 19:00 DOMINGOS DE 13:00 A 19:00,4300-9164,INFO@CINESI.COM.AR,WWW.CINESI.COM.AR,LIBRERIA,,,GENERAL,PRIVADO
-34.63260691,-58.38499212,975,CIRCULO LATINO AUSTRAL,CASEROS AV.,1573,,CASEROS AV. 1573,CONSTITUCION,COMUNA 01,1152,C1152AAL,,4305-2400,,WWW.CIRCULOLATINO.COM.AR,EDITORIAL,,,,PRIVADO
-34.6247001,-58.38136172,980,CLARETIANA EDITORIAL. SUCURSAL LIMA.,LIMA,1360,,LIMA 1360,CONSTITUCION,COMUNA 01,1138,C1138ACD,,4305-9597 // 4305-9510,CONTACTO@EDITORIALCLARETIANA.COM,WWW.EDITORIALCLARETIANA.COM,EDITORIAL,,,GENERAL,PRIVADO
-34.60096694,-58.37451236,180,CLARIDGE BAR,TUCUMAN,535,,TUCUMAN 535,SAN NICOLAS,COMUNA 01,1049,C1049AAK,,"4314-7700, INTERNO: 335",INFORESERVAS@CLARIDGE.COM.AR,WWW.CLARIDGE-HOTEL.COM.AR,BAR NOTABLE,,,GENERAL,PRIVADO
-34.60163442,-58.37669513,918,CLASICA NACIONAL FM 96.7,MAIPU,555,,MAIPU 555,SAN NICOLAS,COMUNA 01,1006,C1006ACE,,4325-9100,PORTAL@RADIONACIONAL.GOV.AR,HTTP://CLASICA.RADIONACIONAL.COM.AR/,RADIO LOCAL (AM Y FM),,SECRETARIA DE MEDIOS,GENERAL,ESTADO NACIONAL
-34.60300726,-58.37159789,1219,CLUB ALEMAN,CORRIENTES AV.,327,PISO 21,CORRIENTES AV. 327,SAN NICOLAS,COMUNA 01,1043,C1043AAD,,4311-0716,INFO@CLUBALEMAN.COM.AR,WWW.CLUBALEMAN.COM.AR,ESPACIO DE FORMACION (SEMINARIOS Y TALLERES),,,GENERAL,PRIVADO
-34.60030256,-58.38293723,1220,CLUB AMERICANO,VIAMONTE,1133,PISO 10,VIAMONTE 1133,SAN NICOLAS,COMUNA 01,1053,C1053ABW,,4373-8801,INFO@AMERICANCLUB.ORG.AR,HTTP://AMERICANCLUB.ORG.AR,CENTRO CULTURAL,,,GENERAL,PRIVADO
-34.61858331,-58.37573701,1844,CLUB BURTON,ESTADOS UNIDOS,700,,ESTADOS UNIDOS 700,SAN TELMO,COMUNA 01,1101,C1101AAN,,4300-5561,,,LIBRERIA,,,GENERAL,PRIVADO
-34.61726508,-58.38308659,330,CLUB DE LAS ARTES,SALTA,755,,SALTA 755,MONSERRAT,COMUNA 01,1074,C1074AAO,MARTES A SABADOS DE 16:00 A 22:00,4384-0700,,,"ESPACIO ESCENICO (TEATRO, MUSICA Y DANZA)",,,GENERAL,PRIVADO
-34.60596141,-58.389283,1846,CLUB DEL COMIC. SUCURSAL MONTEVIDEO.,MONTEVIDEO,255,,MONTEVIDEO 255,SAN NICOLAS,COMUNA 01,1019,C1019ABE,,4375-2323,CLUBDELCOMICMONTEVIDEO@HOTMAIL.COM,WWW.CLUBDELCOMIC.COM.AR,LIBRERIA,,,GENERAL,PRIVADO
-34.60524471,-58.38551415,221,CLUB DEL PROGRESO,SARMIENTO,1334,,SARMIENTO 1334,SAN NICOLAS,COMUNA 01,1041,C1041ABB,LUNES A VIERNES DE 10:00 A 20:00,4372-3350/3380,INFO@CLUBDELPROGRESO.COM,WWW.CLUBDELPROGRESO.COM,"ESPACIO ESCENICO (TEATRO, MUSICA Y DANZA)",,,GENERAL,PRIVADO
-34.60752232,-58.38770932,1542,CLUB DE TANGO,PARANA,123,PISO 5,PARANA 123,SAN NICOLAS,COMUNA 01,1017,C1017AAC,,4372-7251,,,DISQUERIA,,,GENERAL,PRIVADO
-34.6043802,-58.3903749,1847,CLUB DUMAS LIBROS,CORRIENTES AV.,1676,,CORRIENTES AV. 1676,SAN NICOLAS,COMUNA 01,1042,C1042AAP,,5238-2226,CLUBDUMASLIBROS@YAHOO.COM.AR,,LIBRERIA,,,GENERAL,PRIVADO
-34.61402602,-58.37839021,1563,CLUB EXPERIMENTAL DE TANGO ARTE,REPUBLICA BOLIVARIANA DE VENEZUELA,857,PISO 3,REPUBLICA BOLIVARIANA DE VENEZUELA 857,MONSERRAT,COMUNA 01,1095,C1095AAQ,,,,,MILONGA Y/O TANGUERIA,,,GENERAL,PRIVADO
-34.62311676,-58.3718646,1328,CLUB GENERAL BELGRANO - PRACTICA COCHABAMBA 444,COCHABAMBA,444,,COCHABAMBA 444,SAN TELMO,COMUNA 01,1150,C1150AAF,VIERNES DE 21:00 A 3:00,,PRACTICA.COCHABAMBA444@GMAIL.COM,HTTP://TANGOCOCHABAMBA444.WORDPRESS.COM,MILONGA Y/O TANGUERIA,,,GENERAL,PRIVADO
-34.59502794,-58.38279531,965,CLYNA S.A.,CERRITO,1136,PISO 8 DPTO A,CERRITO 1136,RETIRO,COMUNA 01,1010,C1010AAX,,4012-5100,,WWW.PRUADEMECUM.COM,EDITORIAL,,,,PRIVADO
-34.60435108,-58.38513628,848,CM PRODUCCIONES,TALCAHUANO,374,PISO 1 DPTO B,TALCAHUANO 374,SAN NICOLAS,COMUNA 01,1013,C1013AAH,,,INFO@CMPROD.COM.AR,WWW.CMPROD.COM.AR,PRODUCTORA AUDIOVISUAL,,,ADULTOS,PRIVADO
-34.60027176,-58.36473471,1805,COLECCION DE ARTE AMALIA LACROZE DE FORTABAT,"COSSETTINI, OLGA",141,,"COSSETTINI, OLGA 141",PUERTO MADERO,COMUNA 01,1107,C1107CCC,MARTES A DOMINGOS DE 12:00 A 20:00,4310-6600,INFO@COLECCIONFORTABAT.ORG.AR,WWW.COLECCIONFORTABAT.ORG.AR,MUSEO,,,GENERAL,PRIVADO
-34.60911352,-58.38115902,179,CONFITERIA DEL HOTEL CASTELAR,DE MAYO AV.,1048,,DE MAYO AV. 1048,MONSERRAT,COMUNA 01,1085,C1085ABN,,4383-5000/9,INFO@CASTELARHOTEL.COM.AR,WWW.CASTELARHOTEL.COM.AR,BAR NOTABLE,,,GENERAL,PRIVADO
-34.60392465,-58.3794828,170,CONFITERIA IDEAL,SUIPACHA,384,,SUIPACHA 384,SAN NICOLAS,COMUNA 01,1008,C1008AAH,LUNES A DOMINGOS DE 8:30 A 20:00,5265-8069 // 4328-7750,CONFITERIAIDEAL@CONFITERIAIDEAL.COM,WWW.CONFITERIAIDEAL.COM,BAR NOTABLE,,,GENERAL,PRIVADO
-34.61305629,-58.38187474,2110,CONFITERIA LA UNION,BELGRANO AV.,1101,,BELGRANO AV. 1101,MONSERRAT,COMUNA 01,1092,C1092AAL,,,,,BAR ELEMENTO,,,,
-34.59778696,-58.37839211,157,CONFITERIA SAINT MORITZ,ESMERALDA,894,,ESMERALDA 894,RETIRO,COMUNA 01,1007,C1007ABJ,,4311-7311,,,BAR NOTABLE,,,GENERAL,PRIVADO
-34.60063868,-58.38872854,948,CONSEJO PROFESIONAL DE CIENCIAS ECONOMICAS DE LA CAPITAL FEDERAL,VIAMONTE,1549,,VIAMONTE 1549,SAN NICOLAS,COMUNA 01,1055,C1055ABC,,6009-1600,CONSEJO@CONSEJO.ORG.AR,WWW.CONSEJO.ORG.AR,EDITORIAL,,,GENERAL,PRIVADO
-34.59210248,-58.38745693,398,CONSORCIO DE ARTE DE BUENOS AIRES,GUIDO,1566,,GUIDO 1566,RETIRO,COMUNA 01,1016,C1016AAB,LUNES A VIERNES DE 11:00 A 19:00,4816-4524,,,GALERIA DE ARTE,,,GENERAL,PRIVADO
-34.59937639,-58.37821079,1454,"CONSUDEC - PROFESORADOS ""SEPTIMO WALSH""",ESMERALDA,759,,ESMERALDA 759,SAN NICOLAS,COMUNA 01,1007,C1007ABG,LUNES A VIERNES DE 15 A 22,4326-3838 INT 114,ADMISION@PROFESORADOCONSUDEC.EDU.AR,WWW.PROFESORADOCONSUDEC.EDU.AR,ESPACIO DE FORMACION (SEMINARIOS Y TALLERES),,,GENERAL,PRIVADO
-34.60111372,-58.39262025,1529,COOL MUSIC,CALLAO AV.,687,,CALLAO AV. 687,SAN NICOLAS,COMUNA 01,1022,C1022AAG,,4371-7627,,,DISQUERIA,,,GENERAL,PRIVADO
-34.61680996,-58.3773538,957,COSMOPOLITA,PIEDRAS,744,,PIEDRAS 744,SAN TELMO,COMUNA 01,1070,C1070AAP,,4361-8925 // 4361-8049,COSMOPOLITA09@YAHOO.COM.AR,WWW.ED-COSMOPOLITA.COM.AR,EDITORIAL,,,GENERAL,PRIVADO
-34.60007588,-58.37537091,1859,CP67 LIBRERIA TECNICA. SUCURSAL FLORIDA.,FLORIDA,683,,FLORIDA 683,SAN NICOLAS,COMUNA 01,1005,C1005AAM,,4314-6303,,WWW.CP67.COM,LIBRERIA,,,GENERAL,PRIVADO
-34.60245269,-58.38064145,1861,CRIME LIBROS,LAVALLE,985,,LAVALLE 985,SAN NICOLAS,COMUNA 01,1047,C1047AAS,,4326-4178,INFO@CRIMELIBROS.COM.AR,,LIBRERIA,,,GENERAL,PRIVADO
-34.60245269,-58.38064145,1531,CUATRO DISQUERIAS,LAVALLE,985,PB,LAVALLE 985,SAN NICOLAS,COMUNA 01,1047,C1047AAS,,4322-1849,,,DISQUERIA,,,GENERAL,PRIVADO
-34.60544415,-58.38874629,1863,CUEVA LIBROS,SARMIENTO,1566,,SARMIENTO 1566,SAN NICOLAS,COMUNA 01,1042,C1042ABD,,4382-5176,INFO@CUEVALIBROS.COM.AR,WWW.CUEVALIBROS.COM.AR,LIBRERIA,,,GENERAL,PRIVADO
-34.60879956,-58.38605448,1695,CULTURA TANGUERA,RIVADAVIA AV.,1392,,RIVADAVIA AV. 1392,MONSERRAT,COMUNA 01,1033,C1033AAQ,,4381-4049 // 4383-5426,AIRESTANGUEROS@HOTMAIL.COM,WWW.AIRESTANGUEROS.COM,MILONGA Y/O TANGUERIA,,,GENERAL,PRIVADO
-34.59670125,-58.37532198,1544,DANIEL H. GONZALEZ,FLORIDA,971,,FLORIDA 971,RETIRO,COMUNA 01,1005,C1005AAS,,4315-1326,,,DISQUERIA,,,GENERAL,PRIVADO
-34.60188292,-58.39018576,1285,DANTE ALIGHIERI,TUCUMAN,1646,,TUCUMAN 1646,SAN NICOLAS,COMUNA 01,1050,C1050AAH,,4371-2480 INT 133,LIBRERIA@DANTE.EDU.AR,WWW.DANTE.EDU.AR,LIBRERIA,,,GENERAL,PRIVADO
-34.61121762,-58.38798028,1740,D&D EDICIONES,"ALSINA, ADOLFO",1535,PISO 1 DPTO 103,"ALSINA, ADOLFO 1535",MONSERRAT,COMUNA 01,1088,C1088AAM,,,,WWW.EDICIONESDYD.COM.AR,EDITORIAL,,,GENERAL,PRIVADO
-34.60986156,-58.37918444,1738,DE DIOS GUIAS DE VIAJE,TACUARI,131,PISO 1 DPTO B,TACUARI 131,MONSERRAT,COMUNA 01,1071,C1071AAC,,,,WWW.DEDDIOSONLINE.COM,EDITORIAL,,,GENERAL,PRIVADO
-34.60899524,-58.37940064,1866,DE LA AVENIDA,DE MAYO AV.,924,,DE MAYO AV. 924,MONSERRAT,COMUNA 01,1084,C1084AAR,,,,,LIBRERIA,,,GENERAL,PRIVADO
-34.61849506,-58.37568186,1867,DE LA PAZ,ESTADOS UNIDOS,689,,ESTADOS UNIDOS 689,SAN TELMO,COMUNA 01,1101,C1101AAM,,4307-4725,DELAPAZ_SANTELMO@YAHOO.COM.AR,WWW.LIBRERIADELAPAZ.COM.AR,LIBRERIA,,,GENERAL,PRIVADO
-34.59820983,-58.3864877,1868,DE LAS CIENCIAS,PARAGUAY,1363,,PARAGUAY 1363,RETIRO,COMUNA 01,1057,C1057AAU,,5030-8315,,,LIBRERIA,,,GENERAL,PRIVADO
-34.60889557,-58.38028824,1869,DE LAS LUCES,DE MAYO AV.,979,,DE MAYO AV. 979,MONSERRAT,COMUNA 01,1084,C1084AAE,,4343-6216,VENTAS@LIBRERIADELASLUCES.COM.AR,,LIBRERIA,,,GENERAL,PRIVADO
-34.61614838,-58.37504155,215,DEL BORDE ESPACIO TEATRAL,CHILE,630,,CHILE 630,SAN TELMO,COMUNA 01,1098,C1098AAN,LUNES A VIERNES DE 14:00 A 21:00,4300-6201,INFO@DELBORDE.COM.AR,WWW.DELBORDE.COM.AR,"ESPACIO ESCENICO (TEATRO, MUSICA Y DANZA)",,,GENERAL,PRIVADO
-34.6041613,-58.38865419,319,DEL NUDO,CORRIENTES AV.,1551,,CORRIENTES AV. 1551,SAN NICOLAS,COMUNA 01,1042,C1042AAB,LUNES A VIERNES DE 12:00 A 19:00,4373-9899,,,"ESPACIO ESCENICO (TEATRO, MUSICA Y DANZA)",,,GENERAL,PRIVADO
-34.62000435,-58.37008604,1870,DE LOS CUATRO VIENTOS. SUCURSAL BALCARCE.,BALCARCE,1053,,BALCARCE 1053,SAN TELMO,COMUNA 01,1064,C1064AAU,,4911-2593 // 4300-0924,INFO@GARGOLAEDICIONES.COM,WWW.DELOSCUATROVIENTOS.COM.AR,LIBRERIA,,,GENERAL,PRIVADO
-34.61396424,-58.37651702,1871,DE LOS CUATRO VIENTOS. SUCURSAL VENEZUELA.,REPUBLICA BOLIVARIANA DE VENEZUELA,726,,REPUBLICA BOLIVARIANA DE VENEZUELA 726,MONSERRAT,COMUNA 01,1095,C1095AAP,,4331 - 4542,INFO@GARGOLAEDICIONES.COM,WWW.DELOSCUATROVIENTOS.COM.AR,LIBRERIA,,,GENERAL,PRIVADO
-34.60045524,-58.39271354,1742,DEL SOL EDICIONES,CALLAO AV.,737,,CALLAO AV. 737,SAN NICOLAS,COMUNA 01,1023,C1023AAA,,4812-7364,EDELSOL@EDICIONESDELSOL.COM.AR,WWW.ANTIGONALIBROS.COM.AR,EDITORIAL,,,GENERAL,PRIVADO
-34.61672351,-58.37306039,1875,DEL SUR ANTICUARIOS,BOLIVAR,770,,BOLIVAR 770,SAN TELMO,COMUNA 01,1066,C1066AAP,,4953-4453,DELSURANTICUARIOS@YAHOO.COM.AR,,LIBRERIA,,,GENERAL,PRIVADO
-34.60400734,-58.38537013,1737,DE MENTE EDICIONES,CORRIENTES AV.,1312,,CORRIENTES AV. 1312,SAN NICOLAS,COMUNA 01,1043,C1043ABN,,4372-3829,,WWW.DEMENTE.COM,EDITORIAL,,,GENERAL,PRIVADO
-34.59728856,-58.37842549,391,DE SANTI GALERIA,ESMERALDA,952,,ESMERALDA 952,RETIRO,COMUNA 01,1007,C1007ABL,LUNES A VIERNES DE 11:00 A 19:30,4314-2049,GALERIA@DESANTI.COM.AR,,GALERIA DE ARTE,,,GENERAL,PRIVADO
-34.60446669,-58.39153788,1878,DEVA'S. SUCURSAL CORRIENTES.,CORRIENTES AV.,1752,,CORRIENTES AV. 1752,SAN NICOLAS,COMUNA 01,1042,C1042AAQ,,5237-0916,TNCORRIENTES@DEVAS.COM,WWW.DEVAS.COM,LIBRERIA,,,GENERAL,PRIVADO
-34.62196487,-58.37681082,1883,DEVA'S. SUCURSAL SAN JUAN.,SAN JUAN AV.,777,,SAN JUAN AV. 777,SAN TELMO,COMUNA 01,1147,C1147AAF,,4361-3045 // 4361-2709 // 4361-2637,INFO@DEVAS.COM,WWW.DEVAS.COM,LIBRERIA,,,GENERAL,PRIVADO
-34.61257809,-58.39121973,1293,DIOGENES I,MORENO,1767,,MORENO 1767,MONSERRAT,COMUNA 01,1093,C1093ABG,LUNES A VIERNES DE 10 A 20 / SABADOS DE 10 A 14,4371-5228,INFO@EDICIONESLIBERTADOR.COM.AR,WWW.EDICIONESLIBERTADOR.COM.AR,LIBRERIA,,,GENERAL,PRIVADO
-34.60140717,-58.37525266,851,DISCOVER,FLORIDA,537,PISO 1,FLORIDA 537,SAN NICOLAS,COMUNA 01,1005,C1005AAK,,4327-0379,ANDRESVALLE@FIERTEL.COM.AR,WWW.MELLOTRONWEB.COM.AR/DISCOVERSTORE1.HTM,DISQUERIA,,,,PRIVADO
-34.62792684,-58.38332966,872,DISQUERIA KILI,BRASIL,1225,,BRASIL 1225,CONSTITUCION,COMUNA 01,1154,C1154AAU,,4304-9540,,,DISQUERIA,,,GENERAL,PRIVADO
-34.60351742,-58.37981737,1296,DISTAL LIBROS. SUCURSAL CORRIENTES.,CORRIENTES AV.,921,,CORRIENTES AV. 921,SAN NICOLAS,COMUNA 01,1043,C1043AAJ,LUNES A SABADOS DE 10 A 20,5235-1531,CORRIENTES921@DISTALNET.COM,WWW.DISTALNET.COM,LIBRERIA,,,GENERAL,PRIVADO
-34.60508509,-58.37507943,1299,DISTAL LIBROS. SUCURSAL FLORIDA.,FLORIDA,249,,FLORIDA 249,SAN NICOLAS,COMUNA 01,1005,C1005AAE,LUNES A VIERNES DE 8 A 21 / SABADO DE 10 A 20 / DOMINGO DE 11 A 20,5235-1583,DISTAL249@DISTALNET.COM,WWW.DISTALNET.COM,LIBRERIA,,,GENERAL,PRIVADO
-34.60290694,-58.37529078,1300,DISTAL LIBROS. SUCURSAL FLORIDA II.,FLORIDA,436,,FLORIDA 436,SAN NICOLAS,COMUNA 01,1005,C1005AAJ,LUNES A SABADOS DE 9 A 21 / SABADO DE 10 A 21 / DOMINGO DE 11 A 20,5218-4372,DISTAL436@DISTALNET.COM,WWW.DISTALNET.COM,LIBRERIA,,,GENERAL,PRIVADO
-34.60236048,-58.37775809,1303,DISTAL LIBROS. SUCURSAL LAVALLE.,LAVALLE,775,,LAVALLE 775,SAN NICOLAS,COMUNA 01,1047,C1047AAO,LUNES A SABADO DE 10 A 21 / DOMINGO DE 11A 20,5235-1587,LAVALLE775@DISTALNET.COM,WWW.DISTALNET.COM,LIBRERIA,,,GENERAL,PRIVADO
-34.60078127,-58.39083777,1385,DISTRIBUIDORA LUMEN S.R.L.,VIAMONTE,1674,,VIAMONTE 1674,SAN NICOLAS,COMUNA 01,1055,C1055ABF,,4373-1414 / 4375-0453,VENTAS@LUMEN.COM.AR,WWW.LUMEN.COM.AR,EDITORIAL,,,GENERAL,PRIVADO
-34.61612127,-58.37029835,945,DOS EDITORES/DOS TINTAS S.A.,BALCARCE,711,,BALCARCE 711,SAN TELMO,COMUNA 01,1064,C1064AAO,,4361-8794 / 4361-8768,INFO@DOSEDITORES.COM,WWW.DOSEDITORES.COM,EDITORIAL,,,,PRIVADO
-34.60127092,-58.38002999,1001,EDIAR,TUCUMAN,927,PISO 6,TUCUMAN 927,SAN NICOLAS,COMUNA 01,1049,C1049AAS,,4322-8590 / 6589,,WWW.EDIAR.COM.AR,EDITORIAL,,,GENERAL,
-34.59801314,-58.37544565,1824,EDICIONES ARGENTINIDAD,FLORIDA,860,,FLORIDA 860,RETIRO,COMUNA 01,1005,C1005AAR,LUNES A VIERNES DE 10:00 A 17:00,4894-0169,EDICIONES@ARGENTINIDAD.COM,WWW.ARGENTINIDAD.COM,EDITORIAL,,,GENERAL,PRIVADO
-34.61018955,-58.3698266,1010,EDICIONES B / GRUPO Z,PASEO COLON AV.,221,PISO 6,PASEO COLON AV. 221,MONSERRAT,COMUNA 01,1063,C1063ACC,,4343-7510,,WWW.EDICIONESB-ARGENTINA.COM,EDITORIAL,,,,PRIVADO
-34.61235889,-58.37147027,1739,EDICIONES BIENVENIDAS,BELGRANO AV.,367,PISO 6,BELGRANO AV. 367,MONSERRAT,COMUNA 01,1092,C1092AAD,,4331-4586 / 7 / 8,,WWW.BIENVENIDAS.COM,EDITORIAL,,,GENERAL,PRIVADO
-34.60173385,-58.38379145,1715,EDICIONES CAMPO ESTRELLADO,LIBERTAD,567,PISO 10,LIBERTAD 567,SAN NICOLAS,COMUNA 01,1012,C1012AAK,,4381-3738,,WWW.CAMPOESTRELLADO.COM,EDITORIAL,,,NIÑOS Y ADOLESCENTES,PRIVADO
-34.60387671,-58.39087673,793,EDICIONES CORREGIDOR,RODRIGUEZ PEÑA,452,,RODRIGUEZ PEÑA 452,SAN NICOLAS,COMUNA 01,1020,C1020ADJ,,,,WWW.CORREGIDOR.COM,EDITORIAL,,,GENERAL,PRIVADO
-34.60162079,-58.38702232,929,EDICIONES DEL ARROYO,TUCUMAN,1427,PISO 3 DPTO 308,TUCUMAN 1427,SAN NICOLAS,COMUNA 01,1050,C1050AAC,,4372-8589,VENTAS@EDDELARROYO.COM.AR,FACEBOOK EDICIONES DEL ARROYO,EDITORIAL,,,GENERAL,PRIVADO
-34.60415199,-58.38853378,1743,EDICIONES DESDE LA GENTE,CORRIENTES AV.,1543,,CORRIENTES AV. 1543,SAN NICOLAS,COMUNA 01,1042,C1042AAB,,5077-8080 INT 8321 / 8331 / 8341,,,EDITORIAL,,,,PRIVADO
-34.60133662,-58.38950883,778,EDICIONES FABRO,MONTEVIDEO,641,,MONTEVIDEO 641,SAN NICOLAS,COMUNA 01,1019,C1019ABM,,2067-6521,CONTACTOS@EDICIONESFABRO.COM.AR,WWW.EDICIONESFABRO.COM.AR,EDITORIAL,,,GENERAL,PRIVADO
-34.60309226,-58.38984795,794,EDICIONES GARNICA,LAVALLE,1634,PISO 3 DPTO G,LAVALLE 1634,SAN NICOLAS,COMUNA 01,1048,C1048AAN,,4374-1456,GRANICA.AR@GRANICAEDITOR.COM,WWW.GRANICAEDITOR.COM,EDITORIAL,,,GENERAL,PRIVADO
-34.60320956,-58.38517018,1095,EDICIONES LA ROCCA,TALCAHUANO,458,,TALCAHUANO 458,SAN NICOLAS,COMUNA 01,1013,C1013AAJ,,4382-8526,INFO@EDICIONESLAROCCA.COM,WWW.EDICIONESLAROCCA.COM,EDITORIAL,,,GENERAL,PRIVADO
-34.61001955,-58.38670627,1015,EDICIONES MADRES DE PLAZA DE MAYO,"YRIGOYEN, HIPOLITO",1432,,"YRIGOYEN, HIPOLITO 1432",MONSERRAT,COMUNA 01,1089,C1089AAB,,,,WWW.MADRES.ORG,EDITORIAL,,,GENERAL,ONG
-34.60935075,-58.38575473,949,EDICIONES MANANTIAL,DE MAYO AV.,1365,PISO 6,DE MAYO AV. 1365,MONSERRAT,COMUNA 01,1085,C1085ABD,,4383-6059,INFO@EMANANTIAL.COM.AR,WWW.EMANANTIAL.COM.AR,EDITORIAL,,,GENERAL,PRIVADO
-34.60116429,-58.38539574,1707,EDICIONES RAP,TALCAHUANO,638,PISO 2 DPTO D,TALCAHUANO 638,SAN NICOLAS,COMUNA 01,1013,C1013AAN,,4374-0661,CONSULTA@REVISTARAP.COM.AR,WWW.REVISTARAP.COM.AR,EDITORIAL,,,GENERAL,PRIVADO
-34.61268869,-58.37408547,1013,EDICIONES SM,BELGRANO AV.,552,,BELGRANO AV. 552,MONSERRAT,COMUNA 01,1092,C1092AAS,,4000-0400,,WWW.EDICIONESSM.COM.AR,EDITORIAL,,,,PRIVADO
-34.60186051,-58.39101603,1886,EDILYR,TUCUMAN,1685,,TUCUMAN 1685,SAN NICOLAS,COMUNA 01,1050,C1050AAG,,4371-0512,,,LIBRERIA,,,GENERAL,PRIVADO
-34.60439174,-58.39051786,1681,EDIPO LIBROS (SUCURSAL AV. CORRIENTES),CORRIENTES AV.,1686,,CORRIENTES AV. 1686,SAN NICOLAS,COMUNA 01,1042,C1042AAP,LUNES A VIERNES DE 9:30 A 20:00 SABADOS DE 10:00 A 14:00,4371-6891,,WWW.LIBRERIAEDIPO.COM.AR,LIBRERIA,,,GENERAL,PRIVADO
-34.60305163,-58.38917292,1680,EDIPO LIBROS (SUCURSAL LAVALLE),LAVALLE,1582,,LAVALLE 1582,SAN NICOLAS,COMUNA 01,1048,C1048AAL,LUNES A VIERNES DE 9:30 A 20:00 SABADOS DE 10:00 A 14:00,4372-6693,,WWW.LIBRERIAEDIPO.COM.AR,LIBRERIA,,,GENERAL,PRIVADO
-34.6041194,-58.38811232,1720,EDITORES DEL PUERTO,CORRIENTES AV.,1515,PISO 10 DPTO A,CORRIENTES AV. 1515,SAN NICOLAS,COMUNA 01,1042,C1042AAB,,4375-4209 // 4372-8699,,WWW.EDITORESDELPUERTO.COM,EDITORIAL,,,GENERAL,PRIVADO
-34.60058487,-58.38590535,1017,EDITORIAL ABACO,VIAMONTE,1336,,VIAMONTE 1336,SAN NICOLAS,COMUNA 01,1053,C1053ACB,,4371-1675,INFO@ABACOEDITORIAL.COM.AR,WWW.ABACOEDITORIAL.COM.AR,EDITORIAL,,,GENERAL,PRIVADO
-34.60279436,-58.38490651,983,EDITORIAL ABELEDO PERROT,LAVALLE,1280,,LAVALLE 1280,SAN NICOLAS,COMUNA 01,1048,C1048AAF,,5382-8800,,HTTP://NUEVOPORTAL.ABELEDOPERROT.COM,EDITORIAL,,,GENERAL,PRIVADO
-34.59925137,-58.37103576,776,EDITORIAL ALFAGUARA,"ALEM, LEANDRO N. AV.",720,,"ALEM, LEANDRO N. AV. 720",SAN NICOLAS,COMUNA 01,1001,C1001AAP,,4119-5000,INFO@ALFAGUARA.COM.AR,WWW.ALFAGUARA.COM.AR,EDITORIAL,,,GENERAL,PRIVADO
-34.6039482,-58.38434216,1139,EDITORIAL ARGENTA,CORRIENTES AV.,1250,PISO 3 DPTO F,CORRIENTES AV. 1250,SAN NICOLAS,COMUNA 01,1043,C1043AAZ,,4381-6100 // 4382-9085,INFO@EDITORIALARGENTA.COM,WWW.EDITORIALARGENTA.COM,EDITORIAL,,,GENERAL,PRIVADO
-34.61416914,-58.36781151,784,EDITORIAL ATLANTIDA,AZOPARDO,565,,AZOPARDO 565,MONSERRAT,COMUNA 01,1107,C1107ADG,,4346-0100,INFO@ADMAIL.COM.AR,WWW.EDITORIALATLANTIDA.COM.AR,EDITORIAL,,,GENERAL,PRIVADO
-34.61783752,-58.37051226,790,EDITORIAL BIBLOS,"GIUFFRA, JOSE M.,DR.",324,,"GIUFFRA, JOSE M.,DR. 324",SAN TELMO,COMUNA 01,1064,C1064ADD,,4361-0522,INFO@EDITORIALBIBLOS.COM,WWW.EDICIONESDELAFLOR.COM.AR,EDITORIAL,,,GENERAL,PRIVADO
-34.60012427,-58.38032933,1022,EDITORIAL CROQUIS,VIAMONTE,947,PISO 7 DPTO A,VIAMONTE 947,SAN NICOLAS,COMUNA 01,1053,C1053ABS,,4393-1194,INFO@EDITORIALCROQUIS.COM.AR,WWW.EDITORIALCROQUIS.COM,EDITORIAL,,,GENERAL,PRIVADO
-34.6233366,-58.36801378,926,EDITORIAL DISTAL,PASEO COLON AV.,1350,,PASEO COLON AV. 1350,SAN TELMO,COMUNA 01,1063,C1063ADN,,,,WWW.DISTALNET.COM,EDITORIAL,,,GENERAL,PRIVADO
-34.62196487,-58.37681082,946,EDITORIAL ERA NACIENTE,SAN JUAN AV.,777,,SAN JUAN AV. 777,SAN TELMO,COMUNA 01,1147,C1147AAF,,5031-5400,EDITORIPRINCIPIANTES@FIBERTEL.COM.AR,WWW.PARAPRINCIPIANTES.COM,EDITORIAL,,,GENERAL,PRIVADO
-34.60030839,-58.38806517,1123,EDITORIAL ERREPAR,PARANA,725,,PARANA 725,SAN NICOLAS,COMUNA 01,1017,C1017AAO,,4370-2002,CLIENTES@ERREPAR.COM,WWW.ERREPAR.COM,EDITORIAL,,,GENERAL,PRIVADO
-34.60912235,-58.38356542,1133,EDITORIAL GUADAL - EL GATO DE HOJALATA,DE MAYO AV.,1209,PISO 2 DPTO D,DE MAYO AV. 1209,MONSERRAT,COMUNA 01,1085,C1085ABC,,5278-7000,INFO@EDITORIALGUADAL.COM.AR,WWW.EDITORIALGUADAL.COM.AR,EDITORIAL,,,GENERAL,PRIVADO
-34.59572275,-58.38508447,1502,EDITORIAL KIER,SANTA FE AV.,1260,,SANTA FE AV. 1260,RETIRO,COMUNA 01,1059,C1059ABT,LUNES A VIERNES 10 A 20HS / SABADOS 10 A 14HS,4811-0507,LIBRERIA@KIER.COM.AR,WWW.KIER.COM.AR,LIBRERIA,,,GENERAL,PRIVADO
-34.61092629,-58.38291328,932,EDITORIAL LEVIATAN,"ALSINA, ADOLFO",1170,PISO 511,"ALSINA, ADOLFO 1170",MONSERRAT,COMUNA 01,1088,C1088AAF,,4381-7947 / 0453,,WWW.E-LEVIATAN.COM.AR,EDITORIAL,,,GENERAL,PRIVADO
-34.6041613,-58.38865419,1384,EDITORIAL LOSADA (CONGRESO),CORRIENTES AV.,1551,,CORRIENTES AV. 1551,SAN NICOLAS,COMUNA 01,1042,C1042AAB,,4375-5001,LOSADA@EDITORIALLOSADA.COM,WWW.EDITORIALLOSADA.COM.AR,EDITORIAL,,,GENERAL,PRIVADO
-34.62281379,-58.36529585,1727,EDITORIAL MUCHO GUSTO,"MOREAU DE JUSTO, ALICIA AV.",2030,,"MOREAU DE JUSTO, ALICIA AV. 2030",PUERTO MADERO,COMUNA 01,1107,C1107AFP,,4311-0670,MUCHOGUSTO@BELLAVISION.COM.AR,WWW.MUCHOGUSTOEDITORES.COM,EDITORIAL,,,GENERAL,PRIVADO
-34.59843613,-58.38123697,1125,EDITORIAL OCEANO ARGENTINA,"PELLEGRINI, CARLOS",855,PISO 12 Y PISO 13,"PELLEGRINI, CARLOS 855",RETIRO,COMUNA 01,1009,C1009ABQ,,4012-9200,OCEANO@OCEANO.COM.AR,WWW.OCEANO.COM.AR,EDITORIAL,,,GENERAL,PRIVADO
-34.6125938,-58.39145318,1056,EDITORIAL POLEMOS,MORENO,1785,PISO 5,MORENO 1785,MONSERRAT,COMUNA 01,1093,C1093ABG,,4383-5291 / 4382-4198,EDITORIAL@POLEMOS.COM.AR,WWW.EDITORIALPOLEMOS.COM.AR,EDITORIAL,,,,PRIVADO
-34.60407248,-58.38751768,1710,EDITORIAL QUADRATA,CORRIENTES AV.,1471,,CORRIENTES AV. 1471,SAN NICOLAS,COMUNA 01,1042,C1042AAA,,,INFO@EDITORIALQUADRATA.COM,WWW.EDITORIALQUADRATA.COM.AR,EDITORIAL,,,GENERAL,PRIVADO
-34.59925137,-58.37103576,783,EDITORIAL SANTILLANA ARGENTINA,"ALEM, LEANDRO N. AV.",720,,"ALEM, LEANDRO N. AV. 720",SAN NICOLAS,COMUNA 01,1001,C1001AAP,,4119-5000,,WWW.SANTILLANA.COM.AR,EDITORIAL,,,GENERAL,PRIVADO
-34.62469324,-58.36424225,1064,EDITORIAL SERENDIPIDAD,"HUERGO, ING. AV.",1485,,"HUERGO, ING. AV. 1485",SAN TELMO,COMUNA 01,1107,C1107APB,,4307-1562 /4300-6770,INFO@ENZIQUEMARISCAL.COM.AR,WWW.SERENDIPIDA.ORG,EDITORIAL,,,,PRIVADO
-34.61369926,-58.38865008,1000,EDITORIAL SIGMAR,BELGRANO AV.,1580,,BELGRANO AV. 1580,MONSERRAT,COMUNA 01,1093,C1093AAQ,,4381-2510 / 4381-1715,,WWW.SIGMAR.COM.AR,EDITORIAL,,,,PRIVADO
-34.62070959,-58.37359147,779,EDITORIAL SUDAMERICANA (RANDOM HOUSE MONDADORI),HUMBERTO 1°,555,,HUMBERTO 1° 555,SAN TELMO,COMUNA 01,1103,C1103ACK,,5235-4400,,WWW.RHM.COM.AR,EDITORIAL,,,GENERAL,PRIVADO
-34.60334155,-58.37427743,786,EDITORIAL TINTA FRESCA,CORRIENTES AV.,526,,CORRIENTES AV. 526,SAN NICOLAS,COMUNA 01,1043,C1043AAS,,4000-2944,INFO@TINTAFRESCA.COM.AR,WWW.TINTAFRESCA.COM.AR,EDITORIAL,,,GENERAL,PRIVADO
-34.6085831,-58.38386391,1377,EDITORIAL UNIVERSIDAD,RIVADAVIA AV.,1225,,RIVADAVIA AV. 1225,SAN NICOLAS,COMUNA 01,1033,C1033AAC,,4382-9022 / 6850,,WWW.ED-UNIVERSIDAD.COM.AR,EDITORIAL,,,GENERAL,PRIVADO
-34.6085831,-58.38386391,1048,EDITORIAL UNIVERSIDAD,RIVADAVIA AV.,1225,,RIVADAVIA AV. 1225,SAN NICOLAS,COMUNA 01,1033,C1033AAC,,4382-9022 / 4382-6850,,WWW.ED-UNIVERSIDAD.COM.AR,EDITORIAL,,,,PRIVADO
-34.59908969,-58.38068537,1596,EIFFEL LIBRES,CORDOBA AV.,960,PB,CORDOBA AV. 960,SAN NICOLAS,COMUNA 01,1054,C1054AAV,,4326-3843,,,LIBRERIA,,,GENERAL,PRIVADO
-34.59671164,-58.37689931,1528,EL AGUJERITO,MAIPU,971,,MAIPU 971,RETIRO,COMUNA 01,1006,C1006ACM,,4315-0864,,,DISQUERIA,,,GENERAL,PRIVADO
-34.60602034,-58.38497744,1890,EL ALMACEN LIBROS,TALCAHUANO,231,PISO 2 DPTO 17,TALCAHUANO 231,SAN NICOLAS,COMUNA 01,1013,C1013AAE,,,INFO@ELALMACENLIBROS.COM,WWW.ELALMACENLIBROS.COM,LIBRERIA,,,GENERAL,PRIVADO
-34.60409794,-58.37523808,1178,EL ATENEO. SUCURSAL FLORIDA.,FLORIDA,340,,FLORIDA 340,SAN NICOLAS,COMUNA 01,1005,C1005AAH,LUNES A VIERNES DE 9 A 20 / SABADO DE 9 A 17,4325-6801 / 6,,WWW.TEMATIKA.COM,LIBRERIA,,,GENERAL,PRIVADO
-34.6007173,-58.37534728,1179,EL ATENEO. SUCURSAL FLORIDA II.,FLORIDA,629,,FLORIDA 629,SAN NICOLAS,COMUNA 01,1005,C1005AAM,LUNES A SABADOS DE 9 A 21 / DOMINGOS DE 12 A 20,4312-4230 / 4313-3336,,WWW.TEMATIKA.COM,LIBRERIA,,,GENERAL,PRIVADO
-34.62339972,-58.37631511,338,EL BARDO,COCHABAMBA,743,,COCHABAMBA 743,SAN TELMO,COMUNA 01,1150,C1150AAK,MARTES A SABADOS DE 10:00 A 23:00,4300-9889,INFO@ELBARDOTEATRO.COM.AR,WWW.ELBARDOTEATRO.COM.AR,"ESPACIO ESCENICO (TEATRO, MUSICA Y DANZA)",,,GENERAL,PRIVADO
-34.61083323,-58.37913424,1770,EL BUHO,TACUARI,215,,TACUARI 215,MONSERRAT,COMUNA 01,1071,C1071AAE,,4342-0885,,WWW.TEATROELBUHO.COM.AR,"ESPACIO ESCENICO (TEATRO, MUSICA Y DANZA)",,,GENERAL,PRIVADO
-34.6016703,-58.37818865,880,"EL COLECCIONISTA, TIENDA DE MUSICA",ESMERALDA,562,,ESMERALDA 562,SAN NICOLAS,COMUNA 01,1007,C1007ABD,LUNES A VIERNES DE 10:30 A 19:30,4322-0359,CONSULTAS@ELCOLECCIONISTACD.COM.AR,WWW.ELCOLECCIONISTACD.COM.AR,DISQUERIA,,,GENERAL,PRIVADO
-34.62000435,-58.37008604,1595,EL ESCRIBA,BALCARCE,1053,,BALCARCE 1053,SAN TELMO,COMUNA 01,1064,C1064AAU,,4362-8149,INFO@ELESCRIBA.COM,WWW.ELESCRIBA.COM,LIBRERIA,,,GENERAL,PRIVADO
-34.59385763,-58.38448226,1653,EL FARO DEL FIN DEL MUNDO,LIBERTAD,1240,,LIBERTAD 1240,RETIRO,COMUNA 01,1012,C1012AAZ,,4816-2920,CONSULTAS@LIBROSYANTIGUEDADES.COM,WWW.LIBROSYANTIGUEDADES.COM,LIBRERIA,,,GENERAL,PRIVADO
-34.60093966,-58.3880342,233,EL FINO ESPACIO CULTURAL,PARANA,673,PISO 1,PARANA 673,SAN NICOLAS,COMUNA 01,1017,C1017AAM,JUEVES A DOMINGOS,4372-2428,INFO@TEATROELFINO.COM,WWW.TEATROELFINO.COM,"ESPACIO ESCENICO (TEATRO, MUSICA Y DANZA)",,,GENERAL,PRIVADO
-34.60421048,-58.39030366,169,EL GATO NEGRO,CORRIENTES AV.,1669,,CORRIENTES AV. 1669,SAN NICOLAS,COMUNA 01,1042,C1042AAC,LUNES DE 9:00 A 22:00 MARTES DE 9:00 A 23:00 MIERCOLES Y JUEVES DE 9:00 A 24:00 VIERNES Y SABADOS DE 9:00 A 2:00 DOMINGOS DE 15:00 A 23:00,4374 1730,GATONE@ELGATONEGRO.COM.AR,ELGATONEGRONET.COM.AR/HOME.HTM,BAR NOTABLE,,,GENERAL,PRIVADO
-34.59831733,-58.37532533,1894,EL JAGÜEL,FLORIDA,835,,FLORIDA 835,RETIRO,COMUNA 01,1005,C1005AAQ,,4940-2949,SEDEM@CIUDAD.COM.AR,,LIBRERIA,,,GENERAL,PRIVADO
-34.59808426,-58.37829518,1507,EL LIBRO FRANCES,ESMERALDA,861,,ESMERALDA 861,RETIRO,COMUNA 01,1007,C1007ABI,LUNES A VIERNES 9 A 19HS / SABADOS 10 A 1230HS,4311-0363,INFO@LIBROFRANCES.COM,WWW.LIBROFRANCES.COM,LIBRERIA,,,GENERAL,PRIVADO
-34.60442956,-58.39100383,1896,EL PERSEGUIDOR,CORRIENTES AV.,1718,,CORRIENTES AV. 1718,SAN NICOLAS,COMUNA 01,1042,C1042AAQ,,4374-4753,ELPERSE@SPEEDY.COM.AR,,LIBRERIA,,,GENERAL,PRIVADO
-34.61164835,-58.37474116,167,EL QUERANDI,PERU,302,,PERU 302,MONSERRAT,COMUNA 01,1067,C1067AAH,LUNES A VIERNES DE 12:00 A 16:00 Y DE 20:30 A 24:00 SABADOS Y DOMINGOS DE 20:30 A 24:00,5199-1770,RESERVAS@ELQUERANDI.COM.AR,HTTP://WWW.QUERANDI.COM.AR/,BAR NOTABLE,,,GENERAL,PRIVADO
-34.61787528,-58.37308723,1897,EL RUFIAN MELANCOLICO,BOLIVAR,857,,BOLIVAR 857,SAN TELMO,COMUNA 01,1066,C1066AAQ,,4300-1027,RUFIAN61@HOTMAIL.COM,,LIBRERIA,,,GENERAL,PRIVADO
-34.60868964,-58.37732673,1593,EL TUNEL DE BUENOS AIRES,DE MAYO AV.,767,,DE MAYO AV. 767,MONSERRAT,COMUNA 01,1084,C1084AAC,LUNES A VIERNES DE 10:00 A 18:30 SABADOS DE 10:00 A 13:30,4331-2106,EL_LENUT@HOTMAIL.COM,HTTP://ELTUNELDEBUENOSAIRES.BLOGSPOT.COM.AR,LIBRERIA,,,GENERAL,PRIVADO
-34.59831733,-58.37532533,1898,EL VENTANAL,FLORIDA,835,,FLORIDA 835,RETIRO,COMUNA 01,1005,C1005AAQ,,4345-8800,LIBRERIAELVENTANAL@HOTMAIL.COM,WWW.LIBRERIAELVENTANAL.COM.AR,LIBRERIA,,,GENERAL,PRIVADO
-34.61661311,-58.37736524,230,EL VICTORIAL,PIEDRAS,722,,PIEDRAS 722,SAN TELMO,COMUNA 01,1070,C1070AAP,,,,WWW.ELVICTORIAL.COM.AR,"ESPACIO ESCENICO (TEATRO, MUSICA Y DANZA)",,,GENERAL,PRIVADO
-34.61708867,-58.37013176,619,EL VIEJO ALMACEN,INDEPENDENCIA AV.,303,,INDEPENDENCIA AV. 303,SAN TELMO,COMUNA 01,1099,C1099AAD,LUNES A DOMINGOS 20:00,4307-6689,,WWW.ELVIEJOALMACEN.COM.AR,MILONGA Y/O TANGUERIA,,,GENERAL,PRIVADO
-34.60204975,-58.37533134,1551,ELVIS SHOP,FLORIDA,520,PB,FLORIDA 520,SAN NICOLAS,COMUNA 01,1005,C1005AAL,,4394-5216,,,DISQUERIA,,,GENERAL,PRIVADO
-34.60766551,-58.389315,1899,EL VITRAL,MONTEVIDEO,108,,MONTEVIDEO 108,SAN NICOLAS,COMUNA 01,1019,C1019ABD,,4372-2451,,,LIBRERIA,,,GENERAL,PRIVADO
-34.60432075,-58.39181629,1902,ENCUENTRO SUDESTE,CORRIENTES AV.,1773,,CORRIENTES AV. 1773,SAN NICOLAS,COMUNA 01,1042,C1042AAD,,4371-6944,ENCUENTROSUDESTE@GMAIL.COM,WWW.ENCUENTROSUDESTE.COM.AR,LIBRERIA,,,GENERAL,PRIVADO
-34.60369074,-58.38277734,1901,EN EL CAMINO LIBROS. SUCURSAL CORRIENTES.,CORRIENTES AV.,1131,,CORRIENTES AV. 1131,SAN NICOLAS,COMUNA 01,1043,C1043AAL,,4383-5030,ENELCAMINOLIBROS@YAHOO.COM.AR,HTTP://WWW.FACEBOOK.COM/HOME.PHP?#!/PROFILE.PHP?ID=100000315844640&V=INFO,LIBRERIA,,,GENERAL,PRIVADO
-34.60127092,-58.38002999,1903,ENLACE PORRUA S.A.,TUCUMAN,927,PB,TUCUMAN 927,SAN NICOLAS,COMUNA 01,1049,C1049AAS,,4326-1249,ENLACEPORRUA@EDIAR.COM.AR,WWW.EDIAR.COM.AR,LIBRERIA,,,GENERAL,PRIVADO
-34.60478433,-58.38646088,1675,ENTELEQUIA COMIC BOOK STORE (SUCURSAL URUGUAY),URUGUAY,341,,URUGUAY 341,SAN NICOLAS,COMUNA 01,1015,C1015ABG,,4371-2007,INFO@ENTELEQUIA.COM.AR,WWW.ENTELEQUIA.COM.AR,LIBRERIA,,,GENERAL,PRIVADO
-34.59978658,-58.37408304,1414,ESCUELA ARGENTINA DE TANGO (SEDE CENTRO),VIAMONTE,0,PISO 2,VIAMONTE Y SAN MARTIN,SAN NICOLAS,COMUNA 01,0,0,LUNES A SABADOS DE 9:00 A 22:00 DOMINGOS DE 13:00 A 21:00,4312-4990,INFO@EATANGO.ORG,WWW.EATANGO.ORG,ESPACIO DE FORMACION (SEMINARIOS Y TALLERES),,,GENERAL,PRIVADO
-34.59641457,-58.38575129,1413,ESCUELA ARGENTINA DE TANGO (SEDE TALCAHUANO),TALCAHUANO,1052,,TALCAHUANO 1052,RETIRO,COMUNA 01,1013,C1013AAV,LUNES A SABADOS DE 9:00 A 22:00 DOMINGOS DE 13:00 A 21:00,4312-4990,INFO@EATANGO.ORG,WWW.EATANGO.ORG,ESPACIO DE FORMACION (SEMINARIOS Y TALLERES),,,GENERAL,PRIVADO
-34.60495254,-58.37795856,1479,"ESCUELA DE DANZAS N1 ""AIDA VICTORIA MASTRAZZI""",ESMERALDA,285,,ESMERALDA 285,SAN NICOLAS,COMUNA 01,1035,C1035ABE,LUNES A VIERNES DE 9 A 18,4326-5478,DANZASMASTRAZZI@YAHOO.COM.AR,,ESPACIO DE FORMACION (SEMINARIOS Y TALLERES),,MINISTERIO DE EDUCACION DEL GOBIERNO DE LA CIUDAD DE BUENOS AIRES.,GENERAL,ESTADO MUNICIPAL
-34.61225414,-58.37470345,769,ESCUELA DE PERIODISMO DEL CIRCULO DE PRENSA,PERU,358,,PERU 358,MONSERRAT,COMUNA 01,1067,C1067AAH,LUNES A VIERNES DE 9:00 A 13:00 Y DE 18:00 A 21:00,4334-5908/81,CIRCULO@ESCUELADEPERIODISMO.EDU.AR,WWW.ESCUELADEPERIODISMO.EDU.AR,ESPACIO DE FORMACION (SEMINARIOS Y TALLERES),,,ADULTOS,PRIVADO
-34.61197646,-58.38296586,766,ESCUELA NACIONAL DE EXPERIMENTACION Y REALIZACION CINEMATOGRAFICA (E.N.E.R.C.),MORENO,1199,,MORENO 1199,MONSERRAT,COMUNA 01,1091,C1091AAW,LUNES A VIERNES DE 800 A 2300,4383-6432 // 4379-0997,INFO@ENERC.GOB.AR,WWW.ENERC.GOB.AR,ESPACIO DE FORMACION (SEMINARIOS Y TALLERES),,"SECRETARIA DE CULTURA DE LA NACION, INSTITUTO NACIONAL DE CINE Y ARTES AUDIOVISUALES",ADULTOS,ESTADO NACIONAL
-34.61155598,-58.37651616,1458,ESCUELA NACIONAL DE MUSEOLOGIA,MORENO,711,PISO 5,MORENO 711,MONSERRAT,COMUNA 01,1091,C1091AAO,LUNES A VIERNES DE 9 A 23,4342-6645,ESCUELADEMUSEOLOGIA@YAHOO.COM.AR,,ESPACIO DE FORMACION (SEMINARIOS Y TALLERES),,,GENERAL,PRIVADO
-34.60533326,-58.38025559,295,ESPACIO ABIERTO,CARABELAS,255,,CARABELAS 255,SAN NICOLAS,COMUNA 01,1009,C1009AAA,LUNES A VIERNES DE 10:00 A 20:00,4328-2888,ESPACIOABIERTO@ROXANARANDOM.COM.AR,WWW.ROXANARANDOM.COM.AR,"ESPACIO ESCENICO (TEATRO, MUSICA Y DANZA)",,,GENERAL,PRIVADO
-34.6043409,-58.38988782,1204,ESPACIO ARTISTICO COLETTE,CORRIENTES AV.,1660,,CORRIENTES AV. 1660,SAN NICOLAS,COMUNA 01,1042,C1042AAP,,6320-5346,INFO@ESPACIOCOLETTE.COM.AR,WWW.ESPACIOCOLETTE.COM.AR/COLETTE.PHP,"ESPACIO ESCENICO (TEATRO, MUSICA Y DANZA)",,,GENERAL,PRIVADO
-34.59158207,-58.38360323,689,ESPACIO CULTURAL EMBAJADA DEL BRASIL,ARROYO,1142,,ARROYO 1142,RETIRO,COMUNA 01,1007,C1007AAH,,4515-2451,CULTURA@BRASIL.ORG.AR,WWW.BUENOSAIRES.ITAMARATY.GOV.AR,CENTRO CULTURAL,,,GENERAL,PRIVADO
-34.62088754,-58.37621248,290,ESPACIO ECLECTICO,HUMBERTO 1°,730,,HUMBERTO 1° 730,SAN TELMO,COMUNA 01,1103,C1103ACP,,4307-1066,INFO@ESPACIOECLECTICO.COM.AR,WWW.ESPACIOECLECTICO.COM.AR,"ESPACIO ESCENICO (TEATRO, MUSICA Y DANZA)",,,GENERAL,PRIVADO
-34.61425075,-58.37325586,947,ESPACIO EDITORIAL,BOLIVAR,547,PISO 3 DPTO 1,BOLIVAR 547,MONSERRAT,COMUNA 01,1066,C1066AAK,,4331-1945,ESPACIOEDIT@CIUDAD.COM.AR,WWW.ESPACIOEDITORIAL.COM.AR,EDITORIAL,,,GENERAL,PRIVADO
-34.62304852,-58.37083986,882,ESPACIO GIESSO,COCHABAMBA,370,,COCHABAMBA 370,SAN TELMO,COMUNA 01,1150,C1150AAD,LUNES A VIERNES DE 16:00 A 19:00,5080-0528,,,GALERIA DE ARTE,,,GENERAL,PRIVADO
-34.60903852,-58.38958633,638,ESPACIO INCAA KM 0 - GAUMONT,RIVADAVIA AV.,1635,,RIVADAVIA AV. 1635,SAN NICOLAS,COMUNA 01,1033,C1033AAG,LUNES A DOMINGOS DE 12:00 A 24:00,4381-1730,COMUNICACIONESPACIOS@INCAA.GOV.AR,HTTP://ESPACIOS.INCAA.GOV.AR/INDEX.PHP?ESPACIOINCAA=KM0000,CINE,,INSTITUTO NACIONAL DE CINE Y ARTES AUDIOVISUALES.,GENERAL,ESTADO NACIONAL
-34.61680996,-58.3773538,634,ESPACIO INCAA KM2 LA MASCARA,PIEDRAS,736,,PIEDRAS 736,SAN TELMO,COMUNA 01,1070,C1070AAP,LUNES Y MARTES DE 18:00 A 20:30,4307-0566,LAMASCARA_TEATRO06@YAHOO.COM.AR,HTTP://ESPACIOS.INCAA.GOV.AR/INDEX.PHP?ESPACIOINCAA=KM0002,CINE,,INSTITUTO NACIONAL DE CINE Y ARTES AUDIOVISUALES.,GENERAL,ESTADO NACIONAL
-34.60291657,-58.38515016,2034,ESPACIO JURIDICO,TALCAHUANO,487,,TALCAHUANO 487,SAN NICOLAS,COMUNA 01,1013,C1013AAI,,4382-4220/4594,ESPACIOJURIDICO@HOTMAIL.COM,,LIBRERIA,,,GENERAL,PRIVADO
-34.61365731,-58.37281802,2,ESPACIO VIRREY LINIERS,REPUBLICA BOLIVARIANA DE VENEZUELA,469,,REPUBLICA BOLIVARIANA DE VENEZUELA 469,MONSERRAT,COMUNA 01,1095,C1095AAI,MARTES A DOMINGOS 14:00 A 19:00,4339-1900 // 4339-1910,NSABATINI@BUENOSAIRES.GOB.AR,HTTP://WWW.BUENOSAIRES.GOV.AR/AREAS/CULTURA/PATRIMONIO_INSTITUTO_HISTORICO/?MENU_ID=29468,ARCHIVO,,MINISTERIO DE CULTURA - DIRECCION GENERAL DE PATRIMONIO E INSTITUTO HISTORICO,GENERAL,ESTADO MUNICIPAL
-34.60749629,-58.39074417,1908,ESPARTACO. SUCURSAL PEÑA.,RODRIGUEZ PEÑA,130,,RODRIGUEZ PEÑA 130,SAN NICOLAS,COMUNA 01,1020,C1020ADD,,4941-6960,ESPARTACOZANI@FIBERTEL.COM.AR,,LIBRERIA,,,GENERAL,PRIVADO
-34.60757537,-58.39073916,1550,ESPECIAL RECORD S.H.,RODRIGUEZ PEÑA,122,PB,RODRIGUEZ PEÑA 122,SAN NICOLAS,COMUNA 01,1020,C1020ADD,,4373-4083,,,DISQUERIA,,,GENERAL,PRIVADO
-34.60234801,-58.36901678,283,ESTADIO LUNA PARK,BOUCHARD,465,,BOUCHARD 465,SAN NICOLAS,COMUNA 01,1106,C1106ABE,LUNES A VIERNES DE 10:00 A 19:00 SABADOS DE 12 :00 A 19:00,5279-5279,,WWW.LUNAPARK.COM.AR,"ESPACIO ESCENICO (TEATRO, MUSICA Y DANZA)",,,GENERAL,PRIVADO
-34.60949646,-58.38672819,235,ESTUDIO ROBERTO SAIZ,DE MAYO AV.,1430,PISO 3,DE MAYO AV. 1430,MONSERRAT,COMUNA 01,1085,C1085ABR,"LUNES, MARTES Y JUEVES DE 19:30 A 23:00 SABADOS DE 15:00 A 18:00",4383-9444,ROBERTOSAIZ@GMAIL.COM,WWW.DOUCHEZ.NET/ROBERTOSAIZ,"ESPACIO ESCENICO (TEATRO, MUSICA Y DANZA)",,,GENERAL,PRIVADO
-34.60899587,-58.38872049,1117,EUDEBA,RIVADAVIA AV.,1571,,RIVADAVIA AV. 1571,SAN NICOLAS,COMUNA 01,1033,C1033AAF,,"4383-8025, INTERNO 240",,WWW.EUDEBA.COM.AR,EDITORIAL,,,,PRIVADO
-34.60653983,-58.38076386,1549,FABELA DISCOS,"PELLEGRINI, CARLOS",155,PB,"PELLEGRINI, CARLOS 155",SAN NICOLAS,COMUNA 01,1009,C1009ABC,,4326-8658,,,DISQUERIA,,,GENERAL,PRIVADO
-34.62024327,-58.38439971,1412,FACULTAD DE CIENCIAS SOCIALES UBA (SEDE CONSTITUCION),SANTIAGO DEL ESTERO,1029,,SANTIAGO DEL ESTERO 1029,CONSTITUCION,COMUNA 01,1075,C1075AAU,LUNES A VIERNES DE 10 A 19:30,4305-6087 / 6168,,WWW.SOCIALES.UBA.AR,ESPACIO DE FORMACION (SEMINARIOS Y TALLERES),,UNIVERSIDAD DE BUENOS AIRES.,GENERAL,
-34.61968958,-58.37404038,1652,FEDRO,"CALVO, CARLOS",578,,"CALVO, CARLOS 578",SAN TELMO,COMUNA 01,1102,C1102AAL,LUNES A SABADOS DE 12:00 A 21:00 DOMINGOS DE 15:00 A 20:00,4300-7551,LIBROS@FEDROSANTELMO.COM.AR,HTTP://FEDROSANTELMO.WORDPRESS.COM,CENTRO CULTURAL,,,GENERAL,PRIVADO
-34.60863893,-58.3754532,1909,FERIA DE LIBROS,DE MAYO AV.,637,,DE MAYO AV. 637,MONSERRAT,COMUNA 01,1084,C1084AAB,,4331-4898,INFORMES@FERIALIBROS.COM.AR,WWW.FERIALIBROS.COM.AR,LIBRERIA,,,GENERAL,PRIVADO
-34.59636321,-58.37042316,951,FERNANDO MARIN PRODUCCIONES,"MADERO, EDUARDO AV.",942,,"MADERO, EDUARDO AV. 942",RETIRO,COMUNA 01,1106,C1106ACW,,4313-4248,CONTACT@FERNANDOMARIN.COM,WWW.FERNANDOMARIN.COM,PRODUCTORA AUDIOVISUAL,,,ADULTOS,PRIVADO
-34.59769379,-58.37693337,1910,FIGUEROA,MAIPU,898,,MAIPU 898,RETIRO,COMUNA 01,1006,C1006ACL,,4314-0888,FIGUEROALUISEFREN@YAHOO.COM.AR,,LIBRERIA,,,GENERAL,PRIVADO
-34.59761365,-58.37534361,153,FLORIDA GARDEN,FLORIDA,899,,FLORIDA 899,RETIRO,COMUNA 01,1005,C1005AAQ,LUNES A VIERNES DE 6:00 AL CIERRE SABADOS Y DOMINGOS DE 6:00 A 23:00,4312-7902,FLORIDAGARDEN@ARGENTINA.COM,,BAR NOTABLE,,,GENERAL,PRIVADO
-34.59717068,-58.37531784,913,FM IDENTIDAD FM 92.1,FLORIDA,935,,FLORIDA 935,RETIRO,COMUNA 01,1005,C1005AAS,,5246-0240,CONTACTO@FMIDENTIDAD.COM,WWW.FMIDENTIDAD.COM,RADIO LOCAL (AM Y FM),,,GENERAL,PRIVADO
-34.60812254,-58.38625894,770,FUNDACION DE ALTOS ESTUDIOS EN CIENCIAS COMERCIALES,URUGUAY,57,,URUGUAY 57,SAN NICOLAS,COMUNA 01,1015,C1015ABA,LUNES A VIERNES DE 9:00 A 19:00,4124-4717,INFO@LAFUNDACION.EDU.AR,LAFUNDACION.EDU.AR,ESPACIO DE FORMACION (SEMINARIOS Y TALLERES),,,ADULTOS,PRIVADO
-34.59649495,-58.37585726,474,FUNDACION FEDERICO JORGE KLEMM,"ALVEAR, MARCELO T. DE",626,,"ALVEAR, MARCELO T. DE 626",RETIRO,COMUNA 01,1058,C1058AAH,LUNES A VIERNES DE 11:00 A 20:00,4312-3334 /4443,,WWW.FUNDACIONFJKLEMM.ORG,SALA DE EXPOSICION,,,GENERAL,ONG
-34.59443151,-58.37992084,727,FUNDACION KONRAD ADENAUER,SUIPACHA,1175,PISO 3,SUIPACHA 1175,RETIRO,COMUNA 01,1008,C1008AAW,LUNES A JUEVES DE 09:00 A 17:00 VIERNES DE 09:00 A 12:00,4326 2552 // 4326 9944 FAX,@KAS.DE,WWW.KAS.ORG.AR,ESPACIO DE FORMACION (SEMINARIOS Y TALLERES),,,GENERAL,ONG
-34.61276688,-58.3711577,507,GALA TANGO,5 DE JULIO,434,,5 DE JULIO 434,MONSERRAT,COMUNA 01,1064,C1064ABB,LUNES A DOMINGOS DE 20:00 A 00:00,4334-0777,,WWW.GALATANGO.COM,MILONGA Y/O TANGUERIA,,,GENERAL,PRIVADO
-34.61624978,-58.37174204,414,GALERIA 713 ARTE CONTEMPORANEO,DEFENSA,713,,DEFENSA 713,SAN TELMO,COMUNA 01,1065,C1065AAM,LUNES A VIERNES DE 14:00 A 20:00 SABADOS DE 14:00 A 18:00,4362-7331,,WWW.ARTE713.COM,GALERIA DE ARTE,,,GENERAL,PRIVADO
-34.59778942,-58.37241851,448,GALERIA ALBERTO SENDROS,TRES SARGENTOS,359,,TRES SARGENTOS 359,RETIRO,COMUNA 01,1054,C1054ABA,LUNES A VIERNES DE 14:00 A 20:00,4312-0995,,WWW.ALBERTOSENDROS.COM,GALERIA DE ARTE,,,GENERAL,PRIVADO
-34.59904037,-58.37270073,444,GALERIA ARCIMBOLDO,RECONQUISTA,761,PA DPTO 14,RECONQUISTA 761,SAN NICOLAS,COMUNA 01,1003,C1003ABO,LUNES A VIERNES DE 15:00 A 19:00,4311-3373,,WWW.PELUSABORTAWICK.COM.AR,SALA DE EXPOSICION,,,GENERAL,PRIVADO
-34.59220021,-58.37888787,649,GALERIA ARROYO,ARROYO,830,,ARROYO 830,RETIRO,COMUNA 01,1007,C1007AAB,LUNES A VIERNES DE 10:00 A 20:00,4325-0947,,WWW.GALARROYO.COM,GALERIA DE ARTE,,,GENERAL,PRIVADO
-34.59385763,-58.38448226,442,GALERIA ATICA,LIBERTAD,1240,PB DPTO 9,LIBERTAD 1240,RETIRO,COMUNA 01,1012,C1012AAZ,LUNES A VIERNES DE 11:00 A 13:00 Y DE 15:00 A 20:00 SABADOS DE 11:00 A 13:30,,ATICAGALERIADEARTE@FIBERTEL.COM.AR,,GALERIA DE ARTE,,,GENERAL,PRIVADO
-34.60954552,-58.37635559,443,GALERIA BRAQUE,CHACABUCO,131,,CHACABUCO 131,MONSERRAT,COMUNA 01,1069,C1069AAC,LUNES A VIERNES DE 15:00 A 19:30,,INFO@ARTEBRAQUE.COM.AR,WWW.ARTEBRAQUE.COM.AR,GALERIA DE ARTE,,,GENERAL,PRIVADO
-34.59831733,-58.37532533,1912,GALERIA BUENOS AIRES,FLORIDA,833,,FLORIDA 833,RETIRO,COMUNA 01,1005,C1005AAQ,,,,,LIBRERIA,,,GENERAL,PRIVADO
-34.59400841,-58.384476,447,GALERIA DE ARTE LEONARDO DA VINCI,LIBERTAD,1226,,LIBERTAD 1226,RETIRO,COMUNA 01,1012,C1012AAZ,LUNES A SABADOS DE 16:00 A 20:00,4816-864,INFO@DAVINCIRESIDENCE.COM.AR,,GALERIA DE ARTE,,,GENERAL,PRIVADO
-34.61623583,-58.37166538,419,GALERIA DE ARTE MERCEDES GIACHETTI,DEFENSA,718,,DEFENSA 718,SAN TELMO,COMUNA 01,1065,C1065AAN,MIERCOLES A SABADO DE 15:00 A 19:00 DOMINGOS DE 12:00 A 20:00,4361-6307,,WWW.GALERIASMGIACHETTI.COM.AR,SALA DE EXPOSICION,,,GENERAL,PRIVADO
-34.6181296,-58.37583711,886,GALERIA DE ARTE SYLVIA VESCO,CHACABUCO,866,,CHACABUCO 866,SAN TELMO,COMUNA 01,1069,C1069AAR,,,,WWW.SYLVIAVESCOARTE.COM.AR,GALERIA DE ARTE,,,GENERAL,PRIVADO
-34.61677367,-58.37171845,427,GALERIA EDEA,DEFENSA,771,,DEFENSA 771,SAN TELMO,COMUNA 01,1065,C1065AAM,LUNES  A VIERNES DE 15:00 A 18:00,4361-3228,,WWW.EDEAGALERIA.COM,GALERIA DE ARTE,,,GENERAL,PRIVADO
-34.59239007,-58.38005392,393,GALERIA EL SOCORRO,SUIPACHA,1331,,SUIPACHA 1331,RETIRO,COMUNA 01,1011,C1011ACC,,4327-0717,,WWW.ARTELATINOAMERICA.COM,GALERIA DE ARTE,,,GENERAL,PRIVADO
-34.60949646,-58.38672819,426,GALERIA IGNACIO LIPRANDI,DE MAYO AV.,1480,PISO 3 IZA,DE MAYO AV. 1480,MONSERRAT,COMUNA 01,1085,C1085ABR,LUNES A VIERNES DE 11:00 A 20:00,4381-0679,,WWW.IGNACIOLIPRANDI.COM,GALERIA DE ARTE,,,GENERAL,PRIVADO
-34.5917292,-58.38430375,437,GALERIA ISABEL ANCHORENA,LIBERTAD,1389,,LIBERTAD 1389,RETIRO,COMUNA 01,1016,C1016ABA,LUNES A VIERNES DE 11:00 A 20:00 SABADOS DE 11:00 A 15:00,4811-5335/3959,ISABELANCHORENA@SION.COM,WWW.GALERIAISABELANCHORENA.SION.COM,GALERIA DE ARTE,,,GENERAL,PRIVADO
-34.61858623,-58.37627283,400,GALERIA ISIDRO MIRANDA,ESTADOS UNIDOS,726,,ESTADOS UNIDOS 726,SAN TELMO,COMUNA 01,1101,C1101AAP,LUNES A VIERNES DE 13:00 A 19:00,4361-4034,,WWW.ISIDROMIRANDA/GALERIA.PHP,GALERIA DE ARTE,,,GENERAL,PRIVADO
-34.60920181,-58.38244603,421,GALERIA JACQUES MARTINEZ,DE MAYO AV.,1130,PISO 4 DPTO G,DE MAYO AV. 1130,MONSERRAT,COMUNA 01,1085,C1085ABO,LUNES A VIERNES DE 14:00 A 20:00,4381-7458,,WWW.GALERIAJACQUESMARTINEZ.COM,GALERIA DE ARTE,,,GENERAL,PRIVADO
-34.59379002,-58.38009391,436,GALERIA LAGARD,SUIPACHA,1216,,SUIPACHA 1216,RETIRO,COMUNA 01,1011,C1011ACB,LUNES A VIERNES DE 13:00 A 18:30,4393-7822,,WWW.GALERIALAGARD.COM.AR,GALERIA DE ARTE,,,GENERAL,PRIVADO
-34.59282103,-58.37983918,435,GALERIA LAURA HABER,JUNCAL,885,ENTREPISO,JUNCAL 885,RETIRO,COMUNA 01,1062,C1062ABE,LUNES A VIERNES DE 11:00 A 13:00 Y DE 14:00 A 20:00 SABADOS DE 11:00 A 13:00,4328-6490,LAURAHABER@FIBERTEL.COM.AR,WWW.LAURAHABER.COM.AR,GALERIA DE ARTE,,,GENERAL,PRIVADO
-34.59453798,-58.38603627,411,GALERIA PRAXIS,ARENALES,1311,,ARENALES 1311,RETIRO,COMUNA 01,1061,C1061AAM,LUNES A VIERNES 10:30 A 20:00 SABADOS DE 10:30 A 14:00,4813-8639,,WWW.PRAXIS-ART.COM,GALERIA DE ARTE,,,GENERAL,PRIVADO
-34.59417499,-58.38085861,445,GALERIA RICARDO LOPEZ,ARENALES,966,,ARENALES 966,RETIRO,COMUNA 01,1061,C1061AAF,LUNES A VIERNES DE 12:00 A 19:30,4394-6000,RICARDOLOPEZ@YAHOO.COM.AR,,GALERIA DE ARTE,,,GENERAL,PRIVADO
-34.58983803,-58.38576463,394,GALERIA RUBBERS INTERNACIONAL,ALVEAR,1595,,ALVEAR 1595,RETIRO,COMUNA 01,1014,C1014AAC,LUNES A VIERNES 11:00 A 20:00 SABADOS DE 11:00 A 13:30,4816-1864 / 1869,,WWW.RUBBERS.COM.AR,GALERIA DE ARTE,,,GENERAL,PRIVADO
-34.59633819,-58.37550015,433,GALERIA RUTH BENZACAR,FLORIDA,1000,,FLORIDA 1000,RETIRO,COMUNA 01,1005,C1005AAT,LUNES A VIERNES DE 11:00 A 20:00,4313-8480,,WWW.RUTHBENZACAR.COM,GALERIA DE ARTE,,,GENERAL,PRIVADO
-34.59418008,-58.38731643,431,GALERIA SARA GARCIA URIBURU,URUGUAY,1223,,URUGUAY 1223,RETIRO,COMUNA 01,1016,C1016ACE,LUNES A VIERNES DE 11:00 A 13:00 Y DE 16:00 A 20:00 SABADOS DE 11:00 A 13:00,4813-0148,,WWW.SARAGARCIAURIBURU.COM,GALERIA DE ARTE,,,GENERAL,PRIVADO
-34.59407675,-58.38019287,418,GALERIA URSOMARZO,ARENALES,921,,ARENALES 921,RETIRO,COMUNA 01,1061,C1061AAE,LUNES A VIERNES DE 11:00 A 13:00 Y DE 14:00 A 19:00,4393-0871,,WWW.GALERIAURSOMARZO.COM.AR,GALERIA DE ARTE,,,GENERAL,PRIVADO
-34.59523329,-58.37909471,416,GALERIA VAN EYCK,SANTA FE AV.,834,,SANTA FE AV. 834,RETIRO,COMUNA 01,1059,C1059ABP,LUNES A VIERNES DE 11:00 A 20:00,4311-6568,,WWW.VANEYCK.COM.AR,GALERIA DE ARTE,,,GENERAL,PRIVADO
-34.59296746,-58.37826423,402,GALERIA VAN RIEL,JUNCAL,790,,JUNCAL 790,RETIRO,COMUNA 01,1062,C1062ABD,LUNES A VIERNES DE 14:00 A 20:00 SABADOS DE 11:00 A 13:00,4313-5553,,WWW.VANRIEL.COM.AR,GALERIA DE ARTE,,,GENERAL,PRIVADO
-34.59204426,-58.37834539,434,GALERIA VASARI,ESMERALDA,1357,,ESMERALDA 1357,RETIRO,COMUNA 01,1007,C1007ABS,LUNES A VIERNES DE 11:00 A 20:00,4327-0664,,WWW.GALERIAVASARI.COM.AR,GALERIA DE ARTE,,,GENERAL,PRIVADO
-34.59449797,-58.37991929,417,GALERIA VERMEER,SUIPACHA,1169,,SUIPACHA 1169,RETIRO,COMUNA 01,1008,C1008AAW,LUNES A VIERNES DE 11:00 A 15:00 Y DE 16:00 A 19:00,4393-5102,VERMEER@SION.COM,,GALERIA DE ARTE,,,GENERAL,PRIVADO
-34.61377235,-58.37440609,430,GALERIA WUSSMANN SAN TELMO,REPUBLICA BOLIVARIANA DE VENEZUELA,579,,REPUBLICA BOLIVARIANA DE VENEZUELA 579,MONSERRAT,COMUNA 01,1095,C1095AAK,LUNES A VIERNES DE 14:00 A 20:00,4343-4747,,WWW.WUSSMANNBLOG.WORDPRESS.COM,GALERIA DE ARTE,,,GENERAL,PRIVADO
-34.58974434,-58.38259016,429,GALERIA ZURBARAN,CERRITO,1522,,CERRITO 1522,RETIRO,COMUNA 01,1010,C1010ABF,LUNES A VIERNES DE 11:00 A 21:00 SABADOS DE 10:00 A 13:00,4815-1556,CMP@ZURBARAN.COM.AR,WWW.ZURBARANGALERIA.COM.AR,GALERIA DE ARTE,,,GENERAL,PRIVADO
-34.60429889,-58.39150185,1913,GALERNA LIBROS. SUCURSAL CORRIENTES.,CORRIENTES AV.,1743,,CORRIENTES AV. 1743,SAN NICOLAS,COMUNA 01,1042,C1042AAD,,4374-7501,GANDHI@GALERNA.NET,WWW.GALERNALIBROS.COM,LIBRERIA,,,GENERAL,PRIVADO
-34.62035038,-58.37419339,1672,GALERNA LIBROS. SUCURSAL PERU.,PERU,1064,,PERU 1064,SAN TELMO,COMUNA 01,1068,C1068AAL,,4361-8210,SANTELMO@GALERNA.NET,WWW.GALERNALIBROS.COM,LIBRERIA,,,GENERAL,PRIVADO
-34.59640792,-58.38705215,1671,GALERNA LIBROS. SUCURSAL URUGUAY.,URUGUAY,1049,,URUGUAY 1049,RETIRO,COMUNA 01,1016,C1016ACA,,4813-5513,,URUGUAY@GALERNA.NET,LIBRERIA,,,GENERAL,PRIVADO
-34.60405534,-58.38618893,1914,GALLO CANTOR,CORRIENTES AV.,1382,,CORRIENTES AV. 1382,SAN NICOLAS,COMUNA 01,1043,C1043ABN,,3220-3399,GALLOURUGUAY@YAHOO.COM,WWW.ELGALLOCANTOR.COM,LIBRERIA,,,GENERAL,PRIVADO
-34.62290466,-58.36898658,1915,GARCIA CAMBEIRO,COCHABAMBA,248,,COCHABAMBA 248,SAN TELMO,COMUNA 01,1150,C1150AAB,,4361-0473 // 4300-2797,CAMBEIRO@LATBOOK.COM,,LIBRERIA,,,GENERAL,PRIVADO
-34.59337993,-58.38011115,406,G/C ARTE CONTEMPORANEO,SUIPACHA,1250,,SUIPACHA 1250,RETIRO,COMUNA 01,1011,C1011ACB,LUNES A VIERNES DE 11:00 A 19:00,4326-4821,CAMPOCHIARO@HOTMAIL.COM,,GALERIA DE ARTE,,,GENERAL,PRIVADO
-34.61555325,-58.3866571,1126,GRAFICA SUR EDITORA SRL,MEXICO,1448,,MEXICO 1448,MONSERRAT,COMUNA 01,1097,C1097ABD,,4373-8968/8793,GRAFICASUR@GRAFICASUR.COM,WWW.GRAFICASUR.COM,EDITORIAL,,,GENERAL,PRIVADO
-34.62396657,-58.38908514,1129,GRAM EDITORA,COCHABAMBA,1652,,COCHABAMBA 1652,CONSTITUCION,COMUNA 01,1148,C1148ABF,,4304-4833 // 4305-8397,GRAMEDITORA@INFOVIA.COM.AR,WWW.GRAMEDITORA.COM.AR,EDITORIAL,,,GENERAL,PRIVADO
-34.60345615,-58.37887833,1776,GRAN REX,CORRIENTES AV.,857,,CORRIENTES AV. 857,SAN NICOLAS,COMUNA 01,1043,C1043AAI,TODOS LOS DIAS DE 10:00 A 22:00,4322-8000,,HTTP://TEATRO-GRANREX.COM.AR,"ESPACIO ESCENICO (TEATRO, MUSICA Y DANZA)",,,GENERAL,PRIVADO
-34.61360675,-58.38733469,1132,GRUPO CLASA - CULTURAL LIBRERA AMERICANA S.A.,BELGRANO AV.,1494,PISO 2,BELGRANO AV. 1494,MONSERRAT,COMUNA 01,1093,C1093AAP,,,VENTAS@CULTURALLIBRERA.COM.AR,WWW.GRUPOCLASA.COM,EDITORIAL,,,GENERAL,PRIVADO
-34.6128207,-58.37593437,1719,GRUPO CONVERGENCIA,BELGRANO AV.,680,PISO 9,BELGRANO AV. 680,MONSERRAT,COMUNA 01,1092,C1092AAT,,4345-3036,INFO@CONVERGENCIALATINA.COM,WWW.CONVERGENCIALATINA.COM,EDITORIAL,,,GENERAL,PRIVADO
-34.60690534,-58.38208787,1116,GRUPO EDITORIAL TEMAS,CERRITO,136,PISO 3 DPTO 4,CERRITO 136,SAN NICOLAS,COMUNA 01,1010,C1010AAD,,,,WWW.EDITORIALTEMAS.COM.AR,EDITORIAL,,,,PRIVADO
-34.60033612,-58.39151642,1920,GUADALQUIVIR. SUCURSAL RODRIGUEZ PEÑA.,RODRIGUEZ PEÑA,744,,RODRIGUEZ PEÑA 744,SAN NICOLAS,COMUNA 01,1020,C1020ADP,,4815-1190,RELIGIONES@LIBRERIAGUADALQUIVIR.COM,WWW.LIBRERIAGUADALQUIVIR.COM,LIBRERIA,,,GENERAL,PRIVADO
-34.61341246,-58.37472378,1750,GZ EDITORES,PERU,457,PISO 6 DPTO G,PERU 457,MONSERRAT,COMUNA 01,1067,C1067AAI,,5218-6517,GZEDITORES@SICEX.COM.AR,WWW.GZEDITORES.COM.AR,EDITORIAL,,,GENERAL,PRIVADO
