index,Name,Longitude,Latitude,Type,b_id
0,CMB N° 2,-58.4829869068093,-34.6221564665346,barrio medical center,31
1,CMB N° 3,-58.5264647514946,-34.634807560286,barrio medical center,21
2,CMB N° 4,-58.4525542552639,-34.6356352876892,barrio medical center,19
3,CMB N° 6,-58.3936644526942,-34.6196273627075,barrio medical center,5
4,CMB N° 7,-58.519240972146704,-34.6418220955856,barrio medical center,21
5,CMB N° 8,-58.4316921574601,-34.640974479212105,barrio medical center,9
6,CMB N° 9,-58.4713481799362,-34.6698415632881,barrio medical center,30
8,CMB N° 11,-58.4553398663073,-34.5779881666476,barrio medical center,28
9,CMB N° 12,-58.465177127910394,-34.6192457432647,barrio medical center,19
10,CMB N° 13,-58.4797174059797,-34.6120798462711,barrio medical center,31
11,CMB N° 18,-58.4227979176079,-34.652668550114,barrio medical center,46
12,CMB N° 19,-58.52671409213821,-34.613622588674396,barrio medical center,45
13,CMB N° 20,-58.4943582168842,-34.6493390059638,barrio medical center,18
14,CMB N° 23,-58.4297412937434,-34.6297684853076,barrio medical center,9
15,CMB N° 24,-58.4040212047891,-34.6327821014228,barrio medical center,40
16,CMB N° 25,-58.4651653789148,-34.6478958805152,barrio medical center,10
17,CMB N°26,-58.463199016137,-34.5517022081776,barrio medical center,2
18,CMB N° 27,-58.4448228254196,-34.6051857799064,barrio medical center,6
19,CMB N° 28,-58.4849902549043,-34.6658512004875,barrio medical center,30
20,CMB N°29,-58.4033261203016,-34.6123975983726,barrio medical center,4
21,CMB N° 30,-58.370523380744295,-34.6335041740733,barrio medical center,32
22,CMB N° 31,-58.446102357288396,-34.6394070438117,barrio medical center,9
23,CMB N° 32,-58.50402056138329,-34.6279948642509,barrio medical center,22
24,CMB N° 33,-58.4766418292919,-34.5447883287519,barrio medical center,15
25,CMB N° 35,-58.4988217164645,-34.591229509487704,barrio medical center,25
26,CMB N° 36,-58.4860576068175,-34.5852125394914,barrio medical center,47
27,CMB N° 37,-58.3717945186701,-34.6461890403859,barrio medical center,32
28,CMB N° 38,-58.477811305781294,-34.6518838003431,barrio medical center,10
29,CMB N° 1,-58.424539556224204,-34.6458913282137,barrio medical center,46
30,CMB N° 39,-58.43325617108889,-34.660808070848695,barrio medical center,37
31,CMB N° 34,-58.441181684895,-34.5894119084292,barrio medical center,26
32,CMB N° 5,-58.5053021618344,-34.6110172752069,barrio medical center,23
33,CMB N°17,-58.4863959977711,-34.565207153453805,barrio medical center,14
0,Centro de Salud Nivel 1 Retiro 3 (CeSAC Nº 47),-58.379536279174005,-34.5846192395719,community health center,35
1,Centro de Salud Nivel 1 Villa Lugano 6 (CeSAC Nº 43),-58.466629408061294,-34.6778089390512,community health center,30
2,Centro de Salud Nivel 1 Villa Lugano 7 (CeSAC Nº 44),-58.4673635405403,-34.6607303120847,community health center,30
3,Centro de Salud Nivel 1 Almagro (CeSAC N° 38),-58.4215702058292,-34.606588218734395,community health center,12
4,Centro de Salud Nivel 1 La Boca 2 (CeSAC N° 41),-58.3579247623333,-34.6313266810211,community health center,24
5,Centro de Salud Nivel 1 Villa Lugano 1 (CeSAC N° 5),-58.495128113003105,-34.6704648839264,community health center,30
6,Centro de Salud Nivel 1 San Cristóbal (CeSAC N° 45),-58.4022498496126,-34.625391349763795,community health center,5
7,Centro de Salud Nivel 1 La Boca 1 (CeSAC N° 9),-58.3659080000432,-34.640107089047106,community health center,24
8,Centro de Salud Nivel 1 Barracas 2 (CeSAC N° 8),-58.3973625693379,-34.656043846402504,community health center,32
9,Centro de Salud Nivel 1 Villa Lugano 2 (CeSAC N° 7),-58.4912772319533,-34.6779194836943,community health center,30
10,Centro de Salud Nivel 1 Villa Soldati (CeSAC N° 6),-58.44246299635079,-34.6656342249534,community health center,37
11,Centro de Salud Nivel 1 Mataderos 2 (CeSAC N° 37),-58.50427381640449,-34.6655642847012,community health center,18
12,Centro de Salud Nivel 1 Barracas 6 (CeSAC N° 35),-58.399748469498796,-34.6562704964316,community health center,32
13,Centro de Salud Nivel 1 Palermo 3 (CeSAC N° 33),-58.441617140209395,-34.586372671781,community health center,0
14,Centro de Salud Nivel 1 Barracas 4 (CeSAC N° 30),-58.404616160074795,-34.6498751035016,community health center,32
15,Centro de Salud Nivel 1 Villa Lugano 5 (CeSAC N° 29),-58.4866078286625,-34.6846131572289,community health center,30
16,Centro de Salud Nivel 1 Saavedra (CeSAC N° 27),-58.4868366150183,-34.547647179932696,community health center,15
17,Centro de Salud Nivel 1 Palermo 2 (CeSAC N° 26),-58.425644143688295,-34.5872377766862,community health center,0
18,Centro de Salud Nivel 1 Retiro 2 (CeSAC N° 25),-58.3822249756992,-34.581831705584,community health center,35
19,Centro de Salud Nivel 1 Retiro 1 (CeSAC N° 21),-58.37324211544471,-34.584665441877604,community health center,35
20,Centro de Salud Nivel 1 San Telmo (CeSAC N° 15),-58.3724592370497,-34.6207820095087,community health center,41
22,Centro de Salud Nivel 1 Flores 2 (CeSAC N° 20),-58.438095847567,-34.6493682386374,community health center,19
23,Centro de Salud Nivel 1 Flores 1 (CeSAC N° 19),-58.441886542414295,-34.6434765271622,community health center,19
24,Centro de Salud Nivel 1 Villa Lugano 4 (CeSAC N° 18),-58.468012478617794,-34.6737702265593,community health center,30
25,Centro de Salud Nivel 1 Palermo 1 (CeSAC N° 17),-58.41994136835179,-34.59265492033,community health center,0
26,Centro de Salud Nivel 1 Flores 3 (CeSAC N° 31),-58.4336749298209,-34.6458306434842,community health center,19
27,Centro de Salud Nivel 1 Floresta (CeSAC N° 36),-58.4917855634719,-34.621824019783205,community health center,8
28,Centro de Salud Nivel 1 Villa Lugano 8 (CeSAC N° 28),-58.4641132998869,-34.6849948172069,community health center,30
29,Centro de Salud Nivel 1 Mataderos 1 (CeSAC N° 4),-58.506912862895405,-34.655623412729696,community health center,18
30,Centro de Salud Nivel 1 Villa Lugano 9 (CeSAC N° 3),-58.4643352585501,-34.6846295679549,community health center,30
31,Centro de Salud Nivel 1 Balvanera (CeSAC N° 11),-58.41068799087849,-34.5988478008354,community health center,4
32,Centro de Salud Nivel 1 Villa Urquiza (CeSAC N° 12),-58.474181498577,-34.5698990652546,community health center,14
33,Centro de Salud Nivel 1 Villa Pueyrredón (CeSAC N° 2),-58.5095049729635,-34.5765506369991,community health center,16
34,Centro de Salud Nivel 1 Flores 4 (CeSAC N° 40),-58.445859786121595,-34.6449083981669,community health center,19
35,Centro de Salud Nivel 1 Villa Lugano 3 (CeSAC N° 14),-58.4742515422757,-34.6603247715799,community health center,10
36,Centro de Salud Nivel 1 Parque Avellaneda (CeSAC N° 13),-58.483235877426004,-34.6444000222992,community health center,10
37,Centro de Salud Nivel 1 Parque Patricios 2 (CeSAC N° 39),-58.409915411167496,-34.6310049373664,community health center,40
38,Centro de Salud Nivel 1 Barracas 5 (CeSAC N° 32),-58.4311153015132,-34.6541335610707,community health center,46
39,Centro de Salud Nivel 1 Barracas 3 (CeSAC N° 16),-58.3747016835991,-34.6518714830613,community health center,32
40,Centro de Salud Nivel 1 Parque Patricios (CeSAC N° 10),-58.383495108401,-34.6334209011968,community health center,32
41,Centro de Salud Nivel 1 Barracas 1 (CeSAC N° 1),-58.389377681427,-34.6492762975786,community health center,32
42,Centro de Salud Nivel 1 La Paternal 2 (CeSAC N° 22),-58.459167932937405,-34.6008674677704,community health center,27
43,Centro de Salud Nivel 1 La Paternal 1 (CeSAC N° 34),-58.478243668904604,-34.6066090836738,community health center,29
0,HOSPITAL GENERAL DE NIÑOS PEDRO DE ELIZALDE,-58.3775508488443,-34.6288473603882,public hospital,32
1,HOSPITAL GENERAL DE NIÑOS RICARDO GUTIERREZ,-58.412070076945604,-34.5941919726393,public hospital,44
2,HOSPITAL DE ODONTOLOGIA DR. RAMON CARRILLO (EX NACIONAL),-58.4005143372538,-34.584767128645396,public hospital,44
3,HOSPITAL DE SALUD MENTAL BRAULIO MOYANO,-58.385155911888894,-34.6394041316484,public hospital,32
4,HOSPITAL DE GASTROENTEROLOGIA B. UDAONDO,-58.391311440653496,-34.6341535760002,public hospital,40
5,INSTITUTO DE ZOONOSIS L. PASTEUR,-58.4349433479819,-34.6084721257413,public hospital,11
6,HOSPITAL DE REHABILITACION RESPIRATORIA M. FERRER,-58.3758433488021,-34.6302112044495,public hospital,32
7,HOSPITAL INFANTO JUVENIL C. TOBAR GARCIA,-58.3823284509488,-34.6357022351559,public hospital,32
8,HOSPITAL DE SALUD MENTAL J. T. BORDA,-58.382128374695796,-34.6364350546569,public hospital,32
9,HOSPITAL DE ODONTOLOGIA INFANTIL DON BENITO QUINQUELA MARTIN,-58.3601201271455,-34.638891732083394,public hospital,24
10,INSTITUTO DE REHABILITACION PSICOFISICA (I.R.E.P.),-58.4409882382439,-34.5538963316473,public hospital,1
11,HOSPITAL MATERNO INFANTIL R. SARDA,-58.4027506275377,-34.634856308414996,public hospital,40
12,HOSPITAL OFTALMOLOGICO DR. PEDRO LAGLEYZE,-58.46018557755279,-34.6054342750207,public hospital,7
13,HOSPITAL DE ODONTOLOGIA  JOSE DUEÑAS,-58.4276597542837,-34.614634834842896,public hospital,12
14,HOSPITAL MUNICIPAL DE ONCOLOGIA MARIE CURIE,-58.4332484381295,-34.6070507603866,public hospital,11
15,HOSPITAL DE QUEMADOS DR. ARTURO UMBERTO ILLIA,-58.432396695024394,-34.6255031952483,public hospital,11
16,HOSPITAL DE OFTALMOLOGIA SANTA LUCIA,-58.394064160474606,-34.622712507512496,public hospital,5
17,HOSPITAL DE REHABILITACION M. ROCCA,-58.5021449222223,-34.6179817540591,public hospital,33
18,HOSPITAL DE INFECCIOSAS F. MUÑIZ,-58.393726941322605,-34.637529325841605,public hospital,40
19,HOSPITAL DE EMERGENCIAS PSIQUIATRICAS TORCUATO DE ALVEAR,-58.4752588459762,-34.5972098729152,public hospital,27
20,HOSPITAL GENERAL DE AGUDOS B. RIVADAVIA,-58.400513457442294,-34.5847659581214,public hospital,44
21,HOSPITAL GENERAL DE AGUDOS DR C. ARGERICH,-58.36598508871899,-34.6283448581677,public hospital,24
22,HOSPITAL GENERAL DE AGUDOS DR. J. A. FERNANDEZ,-58.406893914278704,-34.581141710889,public hospital,0
23,HOSPITAL GENERAL DE AGUDOS DR. C. DURAND,-58.437981361705106,-34.6089728538415,public hospital,11
24,HOSPITAL GENERAL DE AGUDOS DR. T. ALVAREZ,-58.4695020363265,-34.624170494011395,public hospital,19
25,HOSPITAL GENERAL DE AGUDOS J. M. RAMOS MEJIA,-58.4096107488156,-34.6176598438607,public hospital,4
26,HOSPITAL GENERAL DE AGUDOS DR. I. PIROVANO,-58.4710781593251,-34.565051956568,public hospital,42
27,HOSPITAL GENERAL DE AGUDOS A. ZUBIZARRETA,-58.5110525000569,-34.599979524264,public hospital,23
28,HOSPITAL GENERAL DE AGUDOS D. VELEZ SARSFIELD,-58.50761514091999,-34.6253367952668,public hospital,33
29,HOSPITAL GENERAL DE AGUDOS DONACION F. SANTOJANNI,-58.515629193670904,-34.6491867281064,public hospital,21
30,HOSPITAL GENERAL DE AGUDOS J. A. PENNA,-58.4108602188292,-34.6431172591975,public hospital,40
31,HOSPITAL GENERAL DE AGUDOS DR. E. TORNU,-58.4710976282168,-34.5873917690227,public hospital,47
32,HOSPITAL GENERAL DE AGUDOS P. PIÑERO,-58.4541167814714,-34.643894071866,public hospital,19
33,HOSPITAL CECILIA GRIERSON,-58.4566428491104,-34.6718480140772,public hospital,30
34,HOSP. DE PEDIATRIA DR. J. GARRAHAN,-58.39187918138829,-34.6299453614404,public hospital,40
35,TALLERES PROTEGIDOS DE REHABILITACION PSIQUIATRICA,-58.38142933818911,-34.6419888014928,public hospital,32
0,AV LOPE DE VEGA,-58.5080720511654,-34.6268150764954,pharmacy,33
1,AV JUAN B. JUSTO,-58.4689759825657,-34.6117065912837,pharmacy,7
2,GUEMES,-58.409305280589294,-34.5917612010672,pharmacy,44
3,CARHUE,-58.524821102596796,-34.6396159502234,pharmacy,21
4,AV ALVAREZ JONTE,-58.5066499006764,-34.620429037658404,pharmacy,33
5,AV JUAN B. JUSTO,-58.473068527620704,-34.6147341624871,pharmacy,7
6,AV ELCANO,-58.4607373411615,-34.5819643320509,pharmacy,3
7,AV MONROE,-58.467538589990205,-34.562751300528696,pharmacy,42
8,DOBLAS,-58.431237663731096,-34.6190991231819,pharmacy,11
9,AV ALVAREZ JONTE,-58.475430633001004,-34.6059650568962,pharmacy,29
10,CERVIÑO,-58.4067079956806,-34.580810643854605,pharmacy,0
11,PICHINCHA,-58.3988675193096,-34.6102617943773,pharmacy,4
12,AV CORDOBA,-58.417086792402294,-34.5976587375453,pharmacy,0
13,JUNCAL,-58.405804635701706,-34.5882188107416,pharmacy,44
14,JOSE E. RODO,-58.510066063646605,-34.663739316340006,pharmacy,18
15,PI Y MARGALL,-58.366070868342,-34.6274637125129,pharmacy,24
16,LAGUNA,-58.470149145441596,-34.6470303371374,pharmacy,10
17,AV PEDRO GOYENA,-58.42816304167,-34.6250530668799,pharmacy,11
18,AV CORDOBA,-58.386958425998294,-34.5994736998096,pharmacy,43
19,AV CASEROS,-58.390871129602395,-34.6344294207626,pharmacy,40
20,AV CABILDO,-58.463059090850706,-34.555332354623,pharmacy,2
21,AV INDEPENDENCIA,-58.41524533893129,-34.6206913507133,pharmacy,12
22,AV INDEPENDENCIA,-58.392235263531106,-34.6183673727072,pharmacy,5
23,AV OLAZABAL,-58.488415015689895,-34.5777881496034,pharmacy,14
24,AV DR. RICARDO BALBIN,-58.4793748105058,-34.5569571537132,pharmacy,42
25,LACARRA,-58.4800149557148,-34.6410751995652,pharmacy,10
26,GURRUCHAGA,-58.4395623922373,-34.5956962732221,pharmacy,6
27,SANABRIA,-58.5045151916102,-34.6130178994198,pharmacy,33
28,ARTIGAS,-58.4911332029984,-34.5909064224523,pharmacy,25
30,AV JUAN B. JUSTO,-58.459531965188,-34.605000933028194,pharmacy,7
31,HABANA,-58.5114087030521,-34.596816873190605,pharmacy,23
32,AV RAUL SCALABRINI ORTIZ,-58.433137602368795,-34.5960412656,pharmacy,6
33,ADOLFO ALSINA,-58.404497139387296,-34.6122096134724,pharmacy,4
34,AV DIRECTORIO,-58.4373753854688,-34.628363476972396,pharmacy,11
35,TENIENTE GENERAL JUAN D PERON,-58.3977204981353,-34.60734697631,pharmacy,4
36,J B ALBERDI,-58.502828682400704,-34.6516579254643,pharmacy,18
37,AV VARELA,-58.453687741985796,-34.6437502781349,pharmacy,19
38,TUCUMAN,-58.4046173912177,-34.6019997227836,pharmacy,4
39,AV CORRIENTES,-58.416267888915904,-34.6038734260704,pharmacy,12
40,J. RAMIREZ DE VELAZCO,-58.434830782628005,-34.6006735767969,pharmacy,6
41,TINOGASTA,-58.501166057174,-34.6040081487804,pharmacy,29
42,FORMOSA,-58.429286632571795,-34.6209608802814,pharmacy,11
43,AV ALVAREZ THOMAS,-58.4487034118841,-34.5816268390841,pharmacy,26
45,SANCHEZ DE BUSTAMANTE,-58.4148545366559,-34.6045315422879,pharmacy,12
46,LISANDRO DE LA TORRE,-58.50858750566339,-34.6558609261667,pharmacy,18
47,AV TRIUNVIRATO,-58.4940759903973,-34.567279162447,pharmacy,14
48,MONROE,-58.46073107955879,-34.5586188758738,pharmacy,1
49,MARIANO ACHA,-58.4808200603911,-34.5678580281905,pharmacy,14
50,PALPA,-58.4517010017325,-34.577015777024,pharmacy,28
51,IBERA,-58.4731460148112,-34.5584193616247,pharmacy,42
53,AV JUAN B. ALBERDI,-58.486320406937,-34.6403808317407,pharmacy,22
54,BURELA,-58.494933733973,-34.5736611554451,pharmacy,14
55,BONPLAND,-58.43884218623429,-34.584905334559195,pharmacy,0
56,MORENO,-58.415824613911,-34.614314086326196,pharmacy,12
57,AV LISANDRO DE LA TORRE,-58.5046317613118,-34.659158054433604,pharmacy,18
58,PEDRO MORAN,-58.504731220924796,-34.5977706382228,pharmacy,23
59,AV TRIUNVIRATO,-58.476322904475495,-34.5795442276807,pharmacy,3
60,AV JUAN B. ALBERDI,-58.4481086261516,-34.6252699943768,pharmacy,11
61,SARMIENTO,-58.41618740076571,-34.6058022599607,pharmacy,12
63,ALSINA,-58.376127942093895,-34.6102814901623,pharmacy,36
64,TENIENTE GENERAL JUAN D PERON,-58.421105836378004,-34.6058646559658,pharmacy,12
65,TEODORO GARCIA,-58.448785889929106,-34.5744590527005,pharmacy,28
66,VUELTA DE OBLIGADO,-58.4603195623141,-34.5558856669389,pharmacy,1
67,AV FEDERICO LACROZE,-58.4459084173517,-34.5712931604253,pharmacy,28
68,AV FEDERICO LACROZE,-58.4499522219815,-34.5792733186869,pharmacy,28
69,AV SALVADOR MARIA DEL CARRIL,-58.4983447727297,-34.5910126321605,pharmacy,25
70,SANABRIA,-58.5075447849769,-34.61007255417,pharmacy,23
71,AV LA PLATA,-58.4213404843261,-34.6449096146543,pharmacy,46
72,AV NAZCA,-58.4810425704027,-34.6122167704764,pharmacy,31
74,BARTOLOME MITRE,-58.4300208171897,-34.6106905334337,pharmacy,12
75,AV DIAZ VELEZ,-58.4213735407535,-34.6083987270999,pharmacy,12
77,ARCOS,-58.4541886584682,-34.5596694665158,pharmacy,1
78,LAVALLE,-58.387767324474495,-34.6030510115068,pharmacy,43
79,FRAY J.S. DE ORO,-58.4200636770384,-34.5738642810817,pharmacy,0
80,JURAMENTO,-58.480795495685605,-34.577113479173,pharmacy,14
81,AV PTE. FIGUEROA ALCORTA,-58.3921469701809,-34.5828561356135,pharmacy,44
82,AV MONROE,-58.471044260176896,-34.565476750226004,pharmacy,1
83,AV CORDOBA,-58.43313118953589,-34.5920749651749,pharmacy,0
84,AV CABILDO,-58.46560528156321,-34.5517741861103,pharmacy,2
85,AV CERVIÑO,-58.422616210773,-34.5755929434145,pharmacy,0
86,VENEZUELA,-58.3876222148203,-34.614831750236505,pharmacy,36
87,JUAN F. SEGUI,-58.4096603803173,-34.5785728611312,pharmacy,0
88,AV GAONA,-58.46904548964021,-34.6175812975435,pharmacy,7
89,VIDAL,-58.462640939428994,-34.5618011956616,pharmacy,1
90,VIRREY DEL PINO,-58.4537374842173,-34.5667069593993,pharmacy,1
91,AV CRISOLOGO LARRALDE,-58.4750574911666,-34.552625200632804,pharmacy,15
92,TACUARI,-58.3783933181141,-34.6237659962574,pharmacy,38
93,AV CORRIENTES,-58.399278496068,-34.6044469739505,pharmacy,4
94,BESARES,-58.4696835241495,-34.544489215892895,pharmacy,2
95,COMBATIENTES DE MALVINAS,-58.4721696248768,-34.5845045567555,pharmacy,3
96,LAVALLE,-58.386820297594795,-34.602607241146394,pharmacy,43
97,JOSE PACHECO DE MELO,-58.4038042726134,-34.5854776517032,pharmacy,44
98,ALVAREZ THOMAS,-58.4589657615226,-34.578552988510296,pharmacy,26
99,IRIGOYEN,-58.523581859687006,-34.6227002845254,pharmacy,45
100,AV SEGUROLA,-58.4883754651097,-34.629349857030896,pharmacy,22
101,PEDRO I. RIVERA,-58.4968128874372,-34.5764959829143,pharmacy,14
102,AVALOS,-58.4795389007429,-34.5824602181167,pharmacy,47
103,AV AVELLANEDA,-58.459868371803395,-34.6227312304387,pharmacy,19
105,AV JUAN B. JUSTO,-58.5219873506606,-34.633649451912,pharmacy,20
106,AV ANGEL GALLARDO,-58.4449744920963,-34.6069440125422,pharmacy,6
107,POLA,-58.5109650417832,-34.6418966542697,pharmacy,21
108,GALLO,-58.410893869831106,-34.5953617729137,pharmacy,44
109,URUGUAY,-58.387340091065205,-34.5960092306526,pharmacy,44
110,AV SOLDADO DE LA FRONTERA,-58.466189659579896,-34.682937295255996,pharmacy,30
111,CHARLONE,-58.4693382890445,-34.580377052982804,pharmacy,3
112,MOLDES,-58.460690762644795,-34.5619314420785,pharmacy,1
113,AV RAUL SCALABRINI ORTIZ,-58.419462370278,-34.5875453590371,pharmacy,0
114,AV RAUL SCALABRINI ORTIZ,-58.4192539786193,-34.5869810743291,pharmacy,0
115,AV PUEYRREDON,-58.4031652667299,-34.5974842526061,pharmacy,44
116,TENIENTE GENERAL JUAN D PERON,-58.41891837769171,-34.6067753927338,pharmacy,12
117,AV CABILDO,-58.461219288712705,-34.557202778129394,pharmacy,1
118,BRASIL,-58.3973092583579,-34.6307532805789,pharmacy,40
119,AV DEL LIBERTADOR,-58.4528804424914,-34.5509746361263,pharmacy,1
120,AV SAN MARTIN,-58.4879304346511,-34.5972133520758,pharmacy,25
121,PEDRO MORAN,-58.5214985088039,-34.608608549399904,pharmacy,23
122,TUCUMAN,-58.4106807406271,-34.6004442930209,pharmacy,4
123,ARAOZ,-58.412825426543705,-34.584057905753696,pharmacy,0
124,AV GAONA,-58.465327263243104,-34.6163328111716,pharmacy,19
125,AV ALBARELLOS,-58.5096479632459,-34.5772678338167,pharmacy,16
126,AV RIVADAVIA,-58.5229873283541,-34.6390564182498,pharmacy,21
127,AV SAN MARTIN,-58.4650474748271,-34.6030034398937,pharmacy,7
128,AV JUAN B. ALBERDI,-58.5057623843945,-34.6547300178055,pharmacy,18
129,AV RIVADAVIA,-58.477755058594,-34.6326362987764,pharmacy,8
130,AV SAN PEDRITO,-58.4678164156131,-34.6342821423165,pharmacy,19
131,AV OLAZABAL,-58.4854559861215,-34.5764643753964,pharmacy,14
132,VIRREY DEL PINO,-58.4543261188371,-34.5670456823887,pharmacy,1
133,AV BOEDO,-58.4165235586839,-34.6184227959282,pharmacy,12
134,FERNANDEZ DE ENCISO,-58.512407377140796,-34.601198266115496,pharmacy,23
135,AV LA PLATA,-58.425924555514,-34.6297001900707,pharmacy,39
136,AV BEIRO FRANCISCO,-58.4974553945313,-34.5972578643562,pharmacy,29
137,CABRERA JOSE ANTONIO,-58.432194967373896,-34.5902011116424,pharmacy,0
138,YRIGOYEN HIPOLITO,-58.3872602116645,-34.6102000137848,pharmacy,36
139,AV NAZCA,-58.4896697232187,-34.60149479502,pharmacy,29
140,PADILLA,-58.4431368298588,-34.5997391327949,pharmacy,6
141,SARMIENTO,-58.396739804187206,-34.606110412899,pharmacy,4
142,AV CNEL CARDENAS,-58.501665170484294,-34.6673061232399,pharmacy,18
144,AV RIVADAVIA,-58.4012924858726,-34.609680563656,pharmacy,4
145,AV CORRIENTES,-58.4122413481085,-34.604272186733105,pharmacy,4
146,AV ASAMBLEA,-58.437237676571506,-34.6347440432703,pharmacy,9
147,AV LOPE DE VEGA,-58.5005830843023,-34.6325077990912,pharmacy,17
148,MOLDES,-58.45847022437199,-34.5646479308772,pharmacy,1
149,AV GRAL. MOSCONI,-58.5072617359377,-34.5895675189305,pharmacy,16
150,ESPINOSA,-58.45970511666079,-34.6024926250675,pharmacy,27
151,AV GAONA,-58.4615551938097,-34.614884723676,pharmacy,19
152,AV CORRIENTES,-58.446978980438395,-34.59200946854,pharmacy,26
153,AV AVELLANEDA,-58.4834189369839,-34.6292479635397,pharmacy,8
154,MANUELA PEDRAZA,-58.4833416747863,-34.5606940076791,pharmacy,14
155,AV PUEYRREDON,-58.4046818587772,-34.600766318492695,pharmacy,4
156,AV SAN JUAN,-58.4217062605824,-34.6260839278423,pharmacy,39
157,LLAVALLOL,-58.511754071133296,-34.587404674411005,pharmacy,23
158,AV TRIUNVIRATO,-58.464464149468,-34.584542314147804,pharmacy,3
159,AV SAENZ,-58.4166276752356,-34.650555574102604,pharmacy,46
160,AV GAONA,-58.45430543828011,-34.6115658138242,pharmacy,11
161,CORRALES,-58.4430199748471,-34.6647206032367,pharmacy,37
162,AV BEIRO FRANCISCO,-58.5253864914275,-34.614000626671704,pharmacy,45
163,TUCUMAN,-58.39985938745621,-34.6023682600541,pharmacy,4
164,AV PTE. MANUEL QUINTANA,-58.389978801377296,-34.5881309551189,pharmacy,44
165,AV PUEYRREDON,-58.40490412867229,-34.6032169775441,pharmacy,4
166,MAHATMA GANDHI,-58.441817990532996,-34.6041869588628,pharmacy,6
167,AVELLANEDA,-58.4429792750537,-34.6163843493903,pharmacy,11
168,COBO,-58.431385380327605,-34.6413783723093,pharmacy,9
169,AV CASTAÑARES,-58.4710909749286,-34.6657170275988,pharmacy,30
170,CIUDAD DE LA PAZ,-58.4670613542958,-34.5523041251325,pharmacy,2
171,CONESA,-58.463273346719504,-34.5639723907479,pharmacy,1
172,AV FEDERICO LACROZE,-58.449555281306296,-34.578613830883896,pharmacy,28
173,AV DIAZ VELEZ,-58.430758141648,-34.6085603807426,pharmacy,11
174,AV CARABOBO,-58.445227030049,-34.6422972982154,pharmacy,19
175,VIEDMA FRANCISCO DE,-58.526691158173,-34.6381681353956,pharmacy,21
176,AV ENTRE RIOS,-58.3908766794501,-34.6279396246168,pharmacy,38
177,CONSTITUCION,-58.3836347327784,-34.624874567737,pharmacy,38
178,AV INDEPENDENCIA,-58.3957295729638,-34.6181873781331,pharmacy,4
179,RIOBAMBA,-58.3934351243083,-34.6062217612577,pharmacy,4
180,ESPINOSA,-58.4566234951501,-34.605214120311196,pharmacy,11
181,CURAPALIGÜE,-58.4483133206851,-34.6340528739957,pharmacy,9
182,AV PAVON,-58.4229180769106,-34.6308829199951,pharmacy,39
184,PEDRO MORAN,-58.5177682576308,-34.6058890446133,pharmacy,23
185,NEUQUEN,-58.4562421000772,-34.6158651886334,pharmacy,11
186,AV SANTA FE,-58.41915236067489,-34.5832009938266,pharmacy,0
187,AV COMBATIENTES DE MALVINAS,-58.4710370970123,-34.5866817357703,pharmacy,3
188,AV SEGUROLA,-58.498062482821204,-34.6216748679176,pharmacy,22
189,AV SAN JUAN,-58.4046145541558,-34.624262876231,pharmacy,5
190,PEÑA,-58.4060730796503,-34.5852706214863,pharmacy,44
191,URQUIZA,-58.4081036636079,-34.6338431289847,pharmacy,40
192,AV CORDOBA,-58.4076606477471,-34.5982226654336,pharmacy,4
193,MANUEL UGARTE,-58.4625714425272,-34.556695206133696,pharmacy,1
194,AV BELGRANO,-58.414177805087,-34.615703148491605,pharmacy,12
195,AV RIVADAVIA,-58.4540492525546,-34.6258266095213,pharmacy,19
196,NICASIO OROÑO,-58.45896471051479,-34.6083221845972,pharmacy,11
197,AV RIVADAVIA,-58.3998578315131,-34.6099385305885,pharmacy,4
198,JURAMENTO,-58.4637396629712,-34.5660091034919,pharmacy,1
199,AV CABILDO,-58.4644312353192,-34.553215877620694,pharmacy,2
200,LAVALLE,-58.395287906288004,-34.6033839505376,pharmacy,4
201,AV CORRIENTES,-58.4418170789474,-34.5968095552312,pharmacy,6
202,HONDURAS,-58.4146262868729,-34.5942021219401,pharmacy,0
203,CORRALES,-58.47023897066261,-34.6890914128166,pharmacy,34
204,PARAGUAY,-58.41882996872501,-34.5890294178636,pharmacy,0
205,AV BELGRANO,-58.413056061306804,-34.615296158284195,pharmacy,12
206,AV DEL LIBERTADOR,-58.4425682721584,-34.5623776834686,pharmacy,1
207,AV ALVAREZ JONTE,-58.490142184633505,-34.6114425873973,pharmacy,31
208,AV DIRECTORIO,-58.445386822086704,-34.6295369115996,pharmacy,11
209,PEDERNERA,-58.4613780628269,-34.636030986761796,pharmacy,19
210,AV RIVADAVIA,-58.3947193546204,-34.609562038101394,pharmacy,4
211,SANTA MAGDALENA,-58.3798354078335,-34.6504081314035,pharmacy,32
212,IRIGOYEN B.,-58.3802480041807,-34.6133768688265,pharmacy,36
213,AV BELGRANO,-58.3848829376941,-34.613531627502304,pharmacy,36
214,JORGE NEWBERY,-58.4350042827843,-34.567810699131996,pharmacy,0
215,AV JUAN B. JUSTO,-58.453936610813294,-34.6011793056265,pharmacy,6
216,AV RIVADAVIA,-58.414800880335996,-34.610941610501,pharmacy,12
217,HIDALGO,-58.441379630148404,-34.60825833453,pharmacy,11
218,AV INDEPENDENCIA,-58.3973892429704,-34.6182843444253,pharmacy,4
219,AV EMILIO CASTRO,-58.521947366311394,-34.6552020915186,pharmacy,18
220,AV SAN JUAN,-58.3733831549131,-34.6220938324161,pharmacy,41
221,AV PEDRO GOYENA,-58.4467174227088,-34.6272291592607,pharmacy,11
223,SUAREZ,-58.357749665214904,-34.6347200967437,pharmacy,24
224,AV OLIVERA,-58.481714736134,-34.6529777206552,pharmacy,10
225,DR. T.M. DE ANCHORENA,-58.401907373814,-34.5907927278246,pharmacy,44
226,ESTADOS UNIDOS,-58.40775935009479,-34.6207888889186,pharmacy,5
227,SAAVEDRA,-58.4030632327054,-34.611347554346,pharmacy,4
228,VALENTIN GOMEZ,-58.4140365575914,-34.6052395107598,pharmacy,12
229,AV DR. RICARDO BALBIN,-58.488939239730705,-34.5551595276257,pharmacy,15
230,"DELLEPIANE, LUIS, TTE. GRAL.",-58.474729692783896,-34.6659616819456,pharmacy,30
231,AV DIAZ VELEZ,-58.4383751799988,-34.6086177164112,pharmacy,11
232,AV ALMIRANTE BROWN,-58.358318431814205,-34.6366722811153,pharmacy,24
233,MANUELA PEDRAZA,-58.4627226907985,-34.5496713787035,pharmacy,2
234,BARZANA,-58.48561841294249,-34.5823108860429,pharmacy,14
235,JUAN B. ALBERDI AV,-58.500477305783704,-34.650014831574104,pharmacy,18
236,MORON,-58.47739965081671,-34.6252751718656,pharmacy,8
237,PARAGUAY,-58.387109743307704,-34.598435825420005,pharmacy,44
238,JOSE E. RODO,-58.485664441824206,-34.6427607556969,pharmacy,10
239,AV SAN MARTIN,-58.446995030177405,-34.6076241929122,pharmacy,11
240,NOGOYA,-58.50766448599,-34.612047652701,pharmacy,23
241,ECHEVERRIA,-58.462112662932206,-34.5668574195376,pharmacy,1
242,AV GRAL. MOSCONI,-58.501066666258204,-34.585383770272,pharmacy,16
243,TRELLES,-58.46670855980479,-34.599714042609,pharmacy,27
244,AV RIVADAVIA,-58.408333611248395,-34.610471473878,pharmacy,4
245,BULNES,-58.41451529030089,-34.5908347322588,pharmacy,0
246,AV CABILDO,-58.472935921065904,-34.5422860196881,pharmacy,2
247,AV EVA PERON,-58.4672394396747,-34.6457439072139,pharmacy,10
248,VIAMONTE,-58.391865813681896,-34.6009526677646,pharmacy,43
249,AV CONGRESO,-58.4694361152668,-34.5588811357878,pharmacy,42
250,AV CALLAO,-58.3934534257787,-34.595108833109606,pharmacy,44
251,AV DEL BARCO CENTENERA,-58.423025044173,-34.6519954649286,pharmacy,46
252,BAUNESS,-58.4757067057461,-34.5880188264538,pharmacy,47
253,RIGLOS,-58.4369036470455,-34.6218773675217,pharmacy,11
254,GRITO DE ASENCIO,-58.409307516298504,-34.647501387712104,pharmacy,40
255,PARAGUAY,-58.3782141305875,-34.5974942621777,pharmacy,35
256,AV RIVADAVIA,-58.4824974159365,-34.6341585413263,pharmacy,22
257,AV OLAZABAL,-58.4804234665376,-34.5731362175894,pharmacy,14
258,AV BOYACA,-58.4606906575127,-34.6212645555801,pharmacy,19
259,AV CORRIENTES,-58.44502123554971,-34.5938438628299,pharmacy,6
260,COSTA RICA,-58.4279123205948,-34.5873875958083,pharmacy,0
261,BOGOTA,-58.43046233443089,-34.6118227566047,pharmacy,11
262,NECOCHEA,-58.3623189307304,-34.6297606591143,pharmacy,24
263,RUIZ HUIDOBRO,-58.4879533157862,-34.551764835666496,pharmacy,15
264,PI Y MARGALL,-58.3663683680033,-34.6278286788458,pharmacy,24
265,CHARCAS,-58.420145269666904,-34.5856718556785,pharmacy,0
266,AV JUJUY,-58.405995568843004,-34.6113969722355,pharmacy,4
267,MONTES DE OCA,-58.3754517184764,-34.6335813600082,pharmacy,32
268,AV CONGRESO,-58.4601448685073,-34.554374139675396,pharmacy,1
269,JUNCAL,-58.380276254558495,-34.5930365493711,pharmacy,35
270,AV INDEPENDENCIA,-58.41322059512029,-34.620519029308,pharmacy,12
271,GALLARDO,-58.527099892253396,-34.6254854973774,pharmacy,45
272,AV DR. RICARDO BALBIN,-58.487026592555104,-34.555089421316,pharmacy,15
273,CAMPANA,-58.4901844291346,-34.609323963327306,pharmacy,29
274,AV RIVADAVIA,-58.4981208555712,-34.6374282853375,pharmacy,17
275,FORMOSA,-58.432768375449704,-34.6211800661231,pharmacy,11
276,AV RIVADAVIA,-58.4968197264586,-34.637267964237104,pharmacy,17
277,AV CARABOBO,-58.4484608645117,-34.6398415464115,pharmacy,19
278,GUAMINI,-58.477855968781704,-34.6871818319455,pharmacy,34
279,VIEDMA FRANCISCO DE,-58.5274159339648,-34.638181950598,pharmacy,21
280,BERMUDEZ,-58.513447225955495,-34.616181214651604,pharmacy,23
281,SALCEDO,-58.4133978060447,-34.633608630244396,pharmacy,39
282,AV DIRECTORIO,-58.4894429340602,-34.649295673759305,pharmacy,10
283,AV CORRIENTES,-58.436200902611596,-34.6008893593334,pharmacy,6
284,ECUADOR,-58.406389590972395,-34.5994008989586,pharmacy,4
285,AV AVELLANEDA,-58.4558659957067,-34.6209405113759,pharmacy,11
286,COCHABAMBA,-58.3757568022995,-34.623525505802,pharmacy,41
287,AV SAN MARTIN,-58.4589471909313,-34.6041817505499,pharmacy,27
288,AV CARABOBO,-58.451336324956706,-34.637264810241696,pharmacy,9
289,SARMIENTO,-58.3851612734653,-34.605286621942,pharmacy,43
290,ACOYTE,-58.437073746462794,-34.6166498871155,pharmacy,11
291,AV ALVAREZ THOMAS,-58.45479411918329,-34.5794452987762,pharmacy,26
292,AV RIVADAVIA,-58.5057634495969,-34.6385629353582,pharmacy,17
293,AV CASEROS,-58.415328542092,-34.6386235264853,pharmacy,39
294,NECOCHEA,-58.360296733159196,-34.6310370423614,pharmacy,24
295,AV ESTADO DE ISRAEL,-58.4317036828905,-34.60177250699,pharmacy,12
296,EL SALVADOR,-58.4381568427032,-34.5809028274438,pharmacy,0
297,AV DIRECTORIO,-58.44613128986651,-34.6300106759108,pharmacy,9
298,AV PEDRO GOYENA,-58.4440294671873,-34.6270973368261,pharmacy,11
299,AV JUAN B. ALBERDI,-58.5046246695545,-34.653887998140604,pharmacy,18
300,AV ELCANO,-58.460119594781,-34.5768928895886,pharmacy,28
301,CONDARCO,-58.4796584323218,-34.6088594709297,pharmacy,7
302,ARREGUI,-58.5253822857829,-34.62882923008,pharmacy,20
303,LA RIOJA,-58.40727358310821,-34.6213036292543,pharmacy,5
304,AV REGIMIENTO DE PATRICIOS,-58.370399873097,-34.6299380392089,pharmacy,24
305,PINTO,-58.4768319945333,-34.5502825790173,pharmacy,15
306,AV FEDERICO LACROZE,-58.446973065928205,-34.5738295992685,pharmacy,28
307,AV LAFUENTE,-58.441917739500894,-34.6604090556553,pharmacy,37
308,AV GAONA,-58.4828471246476,-34.62486090897539,pharmacy,8
309,MATHEU,-58.3979898051694,-34.6295782544561,pharmacy,40
310,SANABRIA,-58.499331976248506,-34.619058714716104,pharmacy,33
311,ANGEL J CARRANZA,-58.43207451157289,-34.5768346779096,pharmacy,0
312,AV SEGUROLA,-58.494182556483096,-34.6247356673436,pharmacy,22
313,AV SEGUROLA,-58.4860429413539,-34.6312232048519,pharmacy,22
314,BAIGORRIA,-58.5085242383617,-34.6138937670216,pharmacy,23
315,AV SAN JUAN,-58.401867130217504,-34.623924712446396,pharmacy,5
316,AV SAN JUAN,-58.4005846941656,-34.6233911929187,pharmacy,5
317,MARIANO ACOSTA,-58.475999780242994,-34.6391714141047,pharmacy,10
318,MANUELA PEDRAZA,-58.4605974997871,-34.5482100677688,pharmacy,2
319,AV ENTRE RIOS,-58.3906225448921,-34.633699502582104,pharmacy,40
320,AV RIVADAVIA,-58.4926723738491,-34.6362275186132,pharmacy,22
321,ARCOS,-58.450715477738896,-34.5636916048406,pharmacy,1
322,TTE. GRAL. DONATO ALVAREZ,-58.4581354040197,-34.616176098111204,pharmacy,11
323,GRAL M A RODRIGUEZ,-58.4491027696064,-34.6071691493355,pharmacy,11
324,AV LA PLATA,-58.42882120967921,-34.6180786406603,pharmacy,11
325,OLAVARRIA,-58.359148597682896,-34.6362510260767,pharmacy,24
326,AV OLAZABAL,-58.4747683181999,-34.570238028393,pharmacy,14
327,AV NAZCA,-58.470972077534,-34.6272038742676,pharmacy,19
328,AV SAN MARTIN,-58.5025347522062,-34.594637064977896,pharmacy,25
329,AV LOPE DE VEGA,-58.5177102884589,-34.619883180912,pharmacy,45
330,MURGUIONDO,-58.4886404832315,-34.666954416686394,pharmacy,30
331,NAZCA,-58.5001319020057,-34.5887600346541,pharmacy,16
332,BRASIL,-58.3718340439852,-34.6252351501634,pharmacy,41
333,AV JUAN B. ALBERDI,-58.439392392258604,-34.6228710782724,pharmacy,11
334,MATHEU,-58.397869911634906,-34.6297654808494,pharmacy,40
335,GUEMES,-58.4150578879025,-34.5879924709174,pharmacy,0
336,PEHUAJO,-58.487918668895794,-34.625664817747506,pharmacy,8
337,ACOYTE,-58.439141352829196,-34.6106210916775,pharmacy,11
338,AV AVELLANEDA,-58.4358673837157,-34.6133957060418,pharmacy,11
339,AV ESTADO DE ISRAEL,-58.4304226936506,-34.5997339332345,pharmacy,6
340,AV RIVADAVIA,-58.4731320004995,-34.631860814744,pharmacy,19
341,AV SAN MARTIN,-58.49423644795589,-34.597171322144604,pharmacy,29
342,SANTO DOMINGO,-58.3804879131228,-34.6521047133576,pharmacy,32
343,MONTIEL,-58.5255084186466,-34.6510932417127,pharmacy,21
344,J B ALBERDI,-58.4871383488651,-34.6407902709271,pharmacy,22
345,AV CORDOBA,-58.3965676361936,-34.599905924521195,pharmacy,4
346,COSQUIN,-58.5226342694161,-34.64679989928,pharmacy,21
347,AV CARABOBO,-58.4529926529097,-34.6347810039187,pharmacy,19
348,TUCUMAN,-58.4115599801052,-34.6002031483151,pharmacy,4
349,AV INDEPENDENCIA,-58.390495784982605,-34.6179386655092,pharmacy,36
350,AV CONSTITUYENTES,-58.48538490892201,-34.5881628827827,pharmacy,47
351,PEÑA,-58.40285130211571,-34.587477786277105,pharmacy,44
352,AV INDEPENDENCIA,-58.37688847374229,-34.6172394777738,pharmacy,41
353,MATIENZO BENJAMIN,-58.43381281049599,-34.5682863891893,pharmacy,0
354,DR. FLORENTINO AMEGHINO,-58.47569727909679,-34.6524770277013,pharmacy,10
355,JUAN B. ALBERDI AV,-58.4360392547178,-34.6230111008182,pharmacy,11
356,JERONIMO SALGUERO,-58.4150493897834,-34.588829648233,pharmacy,0
357,AV J. DE GARAY,-58.4085384756543,-34.6293998653414,pharmacy,5
358,ARMENIA,-58.4219345622409,-34.5860984334822,pharmacy,0
359,AV CONGRESO,-58.4905203956972,-34.569761358308895,pharmacy,14
360,IBERA,-58.499191284534206,-34.571707177519,pharmacy,14
361,BULNES,-58.41515564779039,-34.5914900430945,pharmacy,0
362,AV CARABOBO,-58.455197208991606,-34.6293859071805,pharmacy,19
363,ELPIDIO GONZALEZ,-58.506975608161,-34.6254197993402,pharmacy,33
364,EMILIO MITRE,-58.43841168859551,-34.6360967133748,pharmacy,9
365,AV LA PLATA,-58.4284913807421,-34.619559039710396,pharmacy,11
366,CONCORDIA,-58.4973765849469,-34.6059643072358,pharmacy,29
367,SARMIENTO,-58.3890745081285,-34.6052545081742,pharmacy,43
368,AV REGIMIENTO DE PATRICIOS,-58.370704160403996,-34.6309485215859,pharmacy,32
369,CUENCA,-58.491416690958005,-34.605838779214395,pharmacy,29
370,AV SEGUROLA,-58.4985040992314,-34.6213452899054,pharmacy,33
371,ADOLFO ALSINA,-58.401306033770396,-34.6122782842563,pharmacy,4
372,RIO DE JANEIRO,-58.430253966436005,-34.613961550571396,pharmacy,11
373,MORON,-58.4727497882864,-34.6243368594085,pharmacy,19
374,AV COBO,-58.4411808562182,-34.6436783716535,pharmacy,9
375,COMBATE DE LOS POZOS,-58.391671061038295,-34.630847356701395,pharmacy,40
376,AV EVA PERON,-58.4659438443062,-34.645135857662396,pharmacy,10
377,NOGOYA,-58.4927131869402,-34.6032105357026,pharmacy,29
378,SUCRE,-58.4465071574599,-34.559058835647804,pharmacy,1
379,MEXICO,-58.401297853049094,-34.6164674788328,pharmacy,4
380,SANTOS DUMONT,-58.4395760938767,-34.5742386128663,pharmacy,0
381,AV CASEROS,-58.3775895022765,-34.6286014228037,pharmacy,32
382,SANABRIA,-58.511058842986095,-34.6060449062964,pharmacy,23
383,AV RIESTRA,-58.475514950975,-34.6778399601958,pharmacy,30
384,PARAGUAY,-58.424482945394004,-34.584632969277,pharmacy,0
385,J B ALBERDI,-58.430892243595295,-34.622745660782,pharmacy,11
386,ORTIZ DE OCAMPO,-58.4047484495165,-34.5824129627488,pharmacy,0
387,GUTEMBERG,-58.502972545927896,-34.5942908353895,pharmacy,25
388,URUGUAY,-58.38769616636851,-34.593408715151604,pharmacy,44
389,GUEMES,-58.41878698125029,-34.5852287992345,pharmacy,0
390,BRUSELAS,-58.523190323651,-34.6279191031397,pharmacy,20
392,MONTES DE OCA,-58.375050210080396,-34.6350599832233,pharmacy,32
393,ARENALES,-58.396328766005496,-34.5943859695056,pharmacy,44
394,ROJAS,-58.443997027356204,-34.6140974084567,pharmacy,11
395,BAUNESS,-58.489000780643394,-34.573684612950395,pharmacy,14
396,CARLOS CALVO,-58.387192427630794,-34.6200723552986,pharmacy,38
397,NAZCA,-58.496044622480795,-34.5932693175175,pharmacy,25
398,AV INDEPENDENCIA,-58.38679454923321,-34.6180635596204,pharmacy,38
399,JOSE LEON SUAREZ,-58.5278398775941,-34.6399537698211,pharmacy,21
400,ESTADOS UNIDOS,-58.3876787184482,-34.6189840134586,pharmacy,38
401,BESARES,-58.48702314776521,-34.552095779166194,pharmacy,15
402,IRIGOYEN,-58.5155627889859,-34.628836035415205,pharmacy,17
403,COMBATE DE LOS POZOS,-58.3930488619101,-34.613262259767296,pharmacy,4
404,TINOGASTA,-58.5060914729564,-34.6065756716182,pharmacy,23
405,AV CASEROS,-58.3920639791135,-34.6346953257924,pharmacy,40
406,AV BOEDO,-58.4165408455912,-34.6183246987338,pharmacy,12
407,CHENAUT,-58.4314785247239,-34.5708803245326,pharmacy,0
408,J B ALBERDI,-58.4342072819621,-34.6228195580406,pharmacy,11
409,TTE. GRAL. DONATO ALVAREZ,-58.4629170826639,-34.6064594497039,pharmacy,7
410,PARAGUAY,-58.4066295699926,-34.596839789548696,pharmacy,44
411,AV GAONA,-58.4476672954626,-34.608436848066894,pharmacy,11
412,AV DE LOS CORRALES,-58.5058115424239,-34.6674977243013,pharmacy,18
413,AV NAZCA,-58.476095204037705,-34.6177931461821,pharmacy,31
414,AV VARELA,-58.4539415868676,-34.6435620766768,pharmacy,19
415,AV RIVADAVIA,-58.503991101160494,-34.638254019973004,pharmacy,17
416,EMILIO MITRE,-58.4443019235678,-34.6224063437849,pharmacy,11
417,PARAGUAY,-58.4126197159842,-34.593956518892895,pharmacy,44
418,AV CRAMER,-58.4612228672738,-34.5645805470563,pharmacy,1
419,CUENCA,-58.4820608576448,-34.617597199657105,pharmacy,31
420,AV SAN JUAN,-58.4178456188554,-34.6254954512011,pharmacy,39
421,AMADEO JACQUES,-58.5279113409293,-34.6361581366315,pharmacy,21
422,AV COLON,-58.3692413998273,-34.6190783259412,pharmacy,41
423,AV CRISOLOGO LARRALDE,-58.4880621685083,-34.5593205451599,pharmacy,15
424,SARMIENTO,-58.4147428149215,-34.6057432476086,pharmacy,12
425,AV SAN JUAN,-58.4072130237967,-34.6245751869937,pharmacy,5
426,A. J. CARRANZA,-58.43550419839129,-34.5799047882978,pharmacy,0
427,MORENO,-58.37279223138639,-34.6111784669797,pharmacy,36
428,RODRIGUEZ PEÑA,-58.39130713799379,-34.6002397210811,pharmacy,43
429,LISANDRO DE LA TORRE,-58.52110065242311,-34.6415043732662,pharmacy,21
430,AV DE LOS CONSTITUYENTES,-58.5066589984583,-34.5711988443644,pharmacy,14
431,AV BEIRO FRANCISCO,-58.5080221140295,-34.6037156925768,pharmacy,23
432,AV LA PLATA,-58.42763889553989,-34.6218062676342,pharmacy,12
433,AV RAUL SCALABRINI ORTIZ,-58.42690751003529,-34.5924399662834,pharmacy,0
434,AV JUAN B. JUSTO,-58.4907798518159,-34.627089465201394,pharmacy,8
435,AV CORDOBA,-58.4434711292376,-34.5851944284198,pharmacy,0
436,AV RIVADAVIA,-58.4892496244646,-34.6357906186635,pharmacy,22
437,GUEMES,-58.415336498667294,-34.5874375003502,pharmacy,0
438,CNEL. MARTINIANO CHILAVERT,-58.4738408042379,-34.6840702661333,pharmacy,34
439,TENIENTE GENERAL JUAN D PERON,-58.430535599315796,-34.6060539784959,pharmacy,12
440,AV LA PLATA,-58.428130848091094,-34.6215093638061,pharmacy,11
441,MARCELO T. DE ALVEAR,-58.400388386366,-34.5966172390908,pharmacy,44
442,AV SANTA FE,-58.4181203135119,-34.5839096134023,pharmacy,0
444,MARIANO ACHA,-58.4947647087154,-34.5497079177175,pharmacy,15
445,OLAVARRIA,-58.36478414535971,-34.6384685354563,pharmacy,24
446,AV RIVADAVIA,-58.4003007533567,-34.6099464129621,pharmacy,4
447,CASTEX,-58.406538035550795,-34.5777231459129,pharmacy,0
448,AV EVA PERON,-58.472679374250795,-34.6525448421511,pharmacy,10
449,AV JUAN B. ALBERDI,-58.4952650252991,-34.6446824481961,pharmacy,17
450,BARTOLOME MITRE,-58.403140601360704,-34.6085066617832,pharmacy,4
451,AV GRAL. MOSCONI,-58.5052924267585,-34.5883746049577,pharmacy,16
452,AV JUAN B. JUSTO,-58.4625074668179,-34.607484849020096,pharmacy,11
453,GUEMES,-58.4179270716311,-34.585960728814,pharmacy,0
454,JUAN RAMIREZ DE VELAZCO,-58.4374695554335,-34.5973748726971,pharmacy,6
455,AV BOEDO,-58.41619891344379,-34.6320625597614,pharmacy,39
456,AV GAONA,-58.4726837899115,-34.6199231436244,pharmacy,19
457,AV REGIMIENTO DE PATRICIOS,-58.3682326586742,-34.6454154848908,pharmacy,24
458,SAAVEDRA,-58.402706943608706,-34.6157762901049,pharmacy,4
459,AV GAONA,-58.449595107982795,-34.6094454050059,pharmacy,11
460,AV DIRECTORIO,-58.4341961986981,-34.6282531857664,pharmacy,9
461,AV NAZCA,-58.4877668157461,-34.604249264657305,pharmacy,29
462,AV CNEL. ESTEBAN BONORINO,-58.4565769014228,-34.6346678031879,pharmacy,19
463,AV ALMAFUERTE,-58.41172122680371,-34.638730253468104,pharmacy,46
464,GALICIA,-58.449850250034196,-34.6045925679645,pharmacy,6
465,CERVIÑO,-58.4069791617541,-34.5807154220387,pharmacy,0
466,AV SANTA FE,-58.4206011236514,-34.5822278472767,pharmacy,0
467,AV CORONEL DIAZ,-58.4119287146186,-34.591553079305896,pharmacy,44
468,RIGLOS,-58.4362546224366,-34.622575745153696,pharmacy,11
469,GUEVARA,-58.465550480686595,-34.5837100990812,pharmacy,3
470,AV EVA PERON,-58.4651769380702,-34.6447869332386,pharmacy,10
471,FRANCISCO BILBAO,-58.4737074751713,-34.6441786933417,pharmacy,10
472,BRASIL,-58.3838984413622,-34.627900953203,pharmacy,38
473,SANTANDER,-58.4781163632855,-34.6661626827268,pharmacy,30
474,AV NAZCA,-58.4805816395929,-34.6127931518685,pharmacy,31
475,AV CORRIENTES,-58.4193828080631,-34.6031513552413,pharmacy,12
476,"CABEZON, JOSE LEON",-58.5148215615303,-34.5886909975989,pharmacy,23
477,AV RIVADAVIA,-58.38888272803351,-34.6088679908503,pharmacy,43
478,AV CASEROS,-58.4026248836325,-34.6364070744536,pharmacy,40
479,AV ENTRE RÍOS,-58.391969017277404,-34.612542344576504,pharmacy,4
480,AV SAENZ,-58.4166197655888,-34.650676085818894,pharmacy,46
481,AUSTRIA,-58.4010693383916,-34.5855198428506,pharmacy,44
482,PACHECO DE MELO,-58.393715260208104,-34.591805121548,pharmacy,44
483,MORENO,-58.3789248204204,-34.611825220577,pharmacy,36
484,TENIENTE GENERAL JUAN D PERON,-58.424697231408004,-34.6058430209336,pharmacy,12
485,AV SANTA FE,-58.4143893276795,-34.5859503201705,pharmacy,0
486,AV RIVADAVIA,-58.4027427714285,-34.6101217094097,pharmacy,4
487,AV CORONEL DIAZ,-58.4075576015654,-34.585780668159195,pharmacy,44
488,AV RIVADAVIA,-58.511182283257,-34.6395424999434,pharmacy,21
489,AV LA PLATA,-58.4219812121022,-34.6441418281383,pharmacy,46
490,TUCUMAN,-58.3971408481219,-34.602318602523106,pharmacy,4
491,AV SAENZ,-58.416076625089104,-34.6525832424846,pharmacy,46
492,AV RIVADAVIA,-58.421338133245,-34.6114064250465,pharmacy,12
493,AV SANTA FE,-58.3981496803033,-34.595631253899995,pharmacy,44
495,AV CALLAO,-58.3871232988124,-34.587363345689894,pharmacy,44
496,MORENO,-58.3950883885693,-34.612745751074904,pharmacy,4
497,SAN MARTIN,-58.3744646643429,-34.5972901541081,pharmacy,35
498,AV CONGRESO,-58.4631009617568,-34.5559680639447,pharmacy,1
499,AV CABILDO,-58.4570867731371,-34.5612659396373,pharmacy,1
500,JURAMENTO,-58.4573406142235,-34.5626440172182,pharmacy,1
501,CARLOS PELLEGRINI,-58.3812510455867,-34.5955849176724,pharmacy,35
502,HIPOLITO YRIGOYEN,-58.38245786042629,-34.6098840956424,pharmacy,36
503,AV CASEROS,-58.399014784005395,-34.6361203921841,pharmacy,40
504,AV RIVADAVIA,-58.453214363492606,-34.625097540914695,pharmacy,11
505,MONTES DE OCA,-58.3738517345267,-34.6437996563973,pharmacy,32
506,AV CORRIENTES,-58.39839518479071,-34.6047606912484,pharmacy,4
507,AV CALLAO,-58.391658457143706,-34.591826255878104,pharmacy,44
508,RECONQUISTA,-58.37238424034229,-34.6006267287205,pharmacy,43
509,AV CORDOBA,-58.4011687905725,-34.5992882000486,pharmacy,44
510,RAMALLO,-58.47676760192579,-34.5444906046904,pharmacy,15
511,AV SAN JUAN,-58.393618938998394,-34.6230514282979,pharmacy,5
512,AV IRIARTE,-58.3780048211462,-34.6492878806023,pharmacy,32
513,AV CORRIENTES,-58.416464098115505,-34.603474763772,pharmacy,12
514,DEFENSA,-58.372204512131205,-34.610286000672005,pharmacy,36
515,AV CORDOBA,-58.4249760499681,-34.5972097633385,pharmacy,6
516,BRASIL,-58.382459854893,-34.628024020838104,pharmacy,38
517,AV RIVADAVIA,-58.4093616117353,-34.61054946059961,pharmacy,4
518,AV SAENZ,-58.41665312785499,-34.6527658128604,pharmacy,46
519,AV CABILDO,-58.4445092961884,-34.569859563101204,pharmacy,0
521,AV CORDOBA,-58.4006052169147,-34.5993578160509,pharmacy,44
522,AV RIVADAVIA,-58.488970460535796,-34.6357227413598,pharmacy,22
524,ECUADOR,-58.4024041614115,-34.591621938713196,pharmacy,44
525,AV BELGRANO,-58.3973130045115,-34.6140189092745,pharmacy,4
526,SAN MARTIN DE TOURS,-58.4042477959056,-34.578058814840105,pharmacy,0
527,GASCON,-58.4248147162368,-34.6066220061446,pharmacy,12
528,LARREA,-58.4016618672239,-34.595801149774104,pharmacy,44
529,CAMPANA,-58.507203349100294,-34.5901337104342,pharmacy,23
530,PERDRIEL,-58.3878229363528,-34.634736430875805,pharmacy,32
531,BARTOLOME MITRE,-58.3955928747326,-34.6083834921357,pharmacy,4
532,H. YRIGOYEN,-58.398018586513004,-34.6105763919781,pharmacy,4
533,GALVAN,-58.4947725897269,-34.5574523684966,pharmacy,15
534,MORENO,-58.3883563570917,-34.612248324492505,pharmacy,36
535,USPALLATA,-58.411574856726205,-34.6397133896307,pharmacy,40
537,AV RIVADAVIA,-58.4261361282335,-34.6135327044976,pharmacy,12
538,AV LUIS MARIA CAMPOS,-58.4360053038245,-34.5704283562254,pharmacy,0
539,LARREA,-58.402457248733704,-34.602626259672796,pharmacy,4
540,AV PATRICIAS ARGENTINAS,-58.43455081472511,-34.604094988503,pharmacy,11
541,RAMOS MEJIA,-58.4325766159535,-34.6052266907296,pharmacy,11
542,AV CORRIENTES,-58.371288844712105,-34.6028962929363,pharmacy,43
543,AV RIVADAVIA,-58.4406816961461,-34.6203846925224,pharmacy,11
544,AV RIVADAVIA,-58.4128307071762,-34.6107996662125,pharmacy,4
545,JERONIMO SALGUERO,-58.40816342172871,-34.5803003435755,pharmacy,0
546,OLAVARRIA,-58.3708476757898,-34.6391006564945,pharmacy,32
548,AV EMILIO CASTRO,-58.5144165134121,-34.6513054217575,pharmacy,21
549,AV CASEROS,-58.3900639147777,-34.6342467026555,pharmacy,32
550,TALCAHUANO,-58.385628275693705,-34.599895086482604,pharmacy,43
551,TUCUMAN,-58.3896641703209,-34.6017028988813,pharmacy,43
552,AV CORRIENTES,-58.4304525422979,-34.60204587337,pharmacy,12
553,AV TRIUNVIRATO,-58.48570313040379,-34.574975867685104,pharmacy,14
554,RIOBAMBA,-58.3944131073616,-34.598282794995896,pharmacy,44
555,AV PUEYRREDON,-58.400693456080894,-34.5913528369696,pharmacy,44
556,ALVAREZ JONTE,-58.477204968221905,-34.606994190299304,pharmacy,29
557,AV SAN JUAN,-58.396889455640704,-34.6229330296286,pharmacy,5
558,AV RAUL SCALABRINI ORTIZ,-58.4422472524181,-34.601808598830104,pharmacy,6
559,VENEZUELA,-58.3776685168984,-34.614107444849,pharmacy,36
560,AV JURAMENTO,-58.452959557633896,-34.560070115573694,pharmacy,1
561,AV J. DE GARAY,-58.371057072144296,-34.6243981976399,pharmacy,41
562,ANCHORENA,-58.4093537973249,-34.6019666246222,pharmacy,4
563,AV RIVADAVIA,-58.42247100639279,-34.6122736080665,pharmacy,12
564,AV CABILDO,-58.466039788388606,-34.551229904615695,pharmacy,2
565,AV RIVADAVIA,-58.486891813368,-34.634860134853504,pharmacy,22
566,ROJAS,-58.441944107176894,-34.618769973088,pharmacy,11
567,AV SAENZ,-58.415937941379205,-34.6425910612012,pharmacy,46
568,AV SAENZ,-58.416816434939605,-34.6544146999727,pharmacy,46
569,PACHECO DE MELO,-58.399073795415894,-34.5883437375394,pharmacy,44
570,BOLIVAR,-58.3730509462943,-34.6197361224305,pharmacy,41
571,AV BELGRANO,-58.401604029355,-34.6142641025627,pharmacy,4
572,AV FEDERICO LACROZE,-58.443367249106,-34.5686820772497,pharmacy,0
573,AV LOPE DE VEGA,-58.5205335431471,-34.6172471712144,pharmacy,23
574,AV FEDERICO LACROZE,-58.439022459307395,-34.5636995875315,pharmacy,0
575,AV LOPE DE VEGA,-58.5259128751466,-34.613194681524604,pharmacy,23
576,AV SANTA FE,-58.4085496777768,-34.590064671021196,pharmacy,44
577,RINCON,-58.3960473476505,-34.6104150042596,pharmacy,4
578,AV DE LOS CONSTITUYENTES,-58.5071862021704,-34.5708831955276,pharmacy,14
579,AV SANTA FE,-58.42487170188729,-34.579218988162495,pharmacy,0
580,AV RIVADAVIA,-58.469100101338206,-34.6303757640264,pharmacy,19
581,MONROE,-58.463604500642795,-34.5606637190519,pharmacy,1
582,DEL BARCO CENTENERA,-58.4356943955231,-34.6342743470432,pharmacy,9
583,MORENO,-58.39756049144339,-34.613226002733,pharmacy,4
584,AV BOEDO,-58.4163746462572,-34.6246893717559,pharmacy,39
585,ROMULO NAON,-58.4712018938692,-34.5695394601015,pharmacy,14
586,AV INDEPENDENCIA,-58.406253586705205,-34.6195763579804,pharmacy,5
587,AV LOPE DE VEGA,-58.511882881651104,-34.6242967850518,pharmacy,33
588,RAMALLO,-58.474786052857,-34.5438832856178,pharmacy,15
589,MONROE,-58.48587278698529,-34.5742646427913,pharmacy,14
590,ALVAREZ JONTE,-58.4753174053557,-34.606350858833196,pharmacy,7
591,AV PRESIDENTE  QUINTANA,-58.388903982217904,-34.5894400671877,pharmacy,44
592,SALTA,-58.3828710773517,-34.6147183578855,pharmacy,36
593,AV CORONEL DIAZ,-58.408347890087796,-34.586951552463304,pharmacy,44
594,PIEDRAS,-58.3776430167698,-34.6091101341405,pharmacy,36
595,MARCELO T. DE ALVEAR,-58.3966956134639,-34.5970947860452,pharmacy,44
596,AV BELGRANO,-58.40183020433621,-34.6146416614601,pharmacy,4
597,AV VARELA,-58.459510969791005,-34.6384081312945,pharmacy,19
598,AV IRIARTE,-58.393748238839294,-34.6512587434591,pharmacy,32
599,AV LOPE DE VEGA,-58.5279494658818,-34.6121144727168,pharmacy,45
600,RECONQUISTA,-58.3727015124315,-34.602623513782504,pharmacy,43
601,AV ALVAREZ JONTE,-58.51262262729279,-34.625295057459,pharmacy,17
602,MONROE,-58.4571404055246,-34.5568457172244,pharmacy,1
603,AV BEIRO FRANCISCO,-58.5298814145758,-34.6179131341896,pharmacy,45
604,MONROE,-58.4572992614577,-34.5565738057439,pharmacy,1
605,AV ENTRE RIOS,-58.3914308908691,-34.6195435369959,pharmacy,38
606,ACASSUSO,-58.5134485505723,-34.6485244654079,pharmacy,21
607,LA RIOJA,-58.40616630640179,-34.6339202135435,pharmacy,40
608,ALBARRACIN,-58.430106057657206,-34.635140483969806,pharmacy,9
609,J B ALBERDI,-58.5174316824477,-34.661716573945,pharmacy,18
610,AV JUAN B. ALBERDI,-58.5173206497013,-34.6616714655124,pharmacy,18
611,CHILE,-58.3758670074601,-34.6163132463727,pharmacy,41
612,LISANDRO DE LA TORRE,-58.5163264589139,-34.6503504707062,pharmacy,21
613,AV ASAMBLEA,-58.44044280704679,-34.6357628334306,pharmacy,9
614,AV BALBIN,-58.4854257886685,-34.5550575552323,pharmacy,15
615,BRASIL,-58.3829798052789,-34.6277763651981,pharmacy,38
616,LIBERTADOR,-58.3841658221694,-34.587803245714504,pharmacy,44
617,RIO CUARTO,-58.379697995384,-34.650993091015,pharmacy,32
618,AV RIVADAVIA,-58.489225698587504,-34.6357843606803,pharmacy,22
619,AV DIRECTORIO,-58.488403541539704,-34.6483740980794,pharmacy,10
620,AV LA PLATA,-58.4250933861147,-34.6331645967166,pharmacy,39
621,MAIPU,-58.3770263958614,-34.599600744271996,pharmacy,43
622,AV CABILDO,-58.4371653795998,-34.574333631643896,pharmacy,0
623,AV RIVADAVIA,-58.447313834447,-34.6232424783318,pharmacy,11
624,PASTEUR,-58.3998312288898,-34.6029833303669,pharmacy,4
625,GUEMES,-58.4108379238289,-34.5903454065166,pharmacy,44
626,AV RIVADAVIA,-58.4052681319329,-34.6102601597411,pharmacy,4
627,VIDAL,-58.4579238197458,-34.567242135788604,pharmacy,1
628,AV ALVAREZ JONTE,-58.488032626243296,-34.610136422392394,pharmacy,31
629,AV RIVADAVIA,-58.4170842542602,-34.6111089727803,pharmacy,12
630,AV EVA PERON,-58.4824735604705,-34.660476102614005,pharmacy,30
631,BARTOLOME MITRE,-58.41609379483499,-34.6093083676771,pharmacy,12
632,AV RIVADAVIA,-58.43521758379129,-34.617546940979096,pharmacy,11
633,AV FEDERICO LACROZE,-58.4548710083212,-34.5862109446879,pharmacy,26
634,BERUTI,-58.408954953053,-34.587772633625804,pharmacy,44
635,AV TRIUNVIRATO,-58.4789742935031,-34.5789488061163,pharmacy,14
636,BRASIL,-58.376042290346405,-34.626318914931396,pharmacy,41
637,ECHEVERRIA,-58.4464884215892,-34.557614691766894,pharmacy,1
638,AV PUEYRREDON,-58.402003356099904,-34.593163216410105,pharmacy,44
639,AV MEDRANO,-58.4213952613525,-34.6105642818714,pharmacy,12
640,AV ENTRE RIOS,-58.3917242205946,-34.6224421989172,pharmacy,5
642,AV MONROE,-58.4704264395519,-34.5650733495755,pharmacy,1
643,SAN JOSE,-58.38631920440311,-34.6124906841303,pharmacy,36
644,AV DE LOS INMIGRANTES,-58.369040628733394,-34.584882457933304,pharmacy,35
645,AV BEIRO FRANCISCO,-58.512805280696895,-34.606716828745796,pharmacy,23
646,AV SANTA FE,-58.4009193471075,-34.594645743886296,pharmacy,44
647,AV DIAZ VELEZ,-58.4388601734713,-34.608620246033205,pharmacy,11
648,AV CALLAO,-58.3925160948726,-34.601010575398504,pharmacy,43
649,AV EVA PERON,-58.46039963414229,-34.6429990184785,pharmacy,19
650,AV SANTA FE,-58.412298850334395,-34.5878084126643,pharmacy,0
651,BARTOLOME MITRE,-58.416625425775,-34.609325053359605,pharmacy,12
652,AV SAN JUAN,-58.3674721669186,-34.621827417417606,pharmacy,41
653,AV NAZCA,-58.4864660985559,-34.605721727979805,pharmacy,29
654,DEL BARCO CENTENERA,-58.44125737043179,-34.621461983299696,pharmacy,11
655,AV RIESTRA,-58.478655326335705,-34.68056564221,pharmacy,30
656,AV JUAN B. ALBERDI,-58.483177688077,-34.638920619245894,pharmacy,22
657,JUNCAL,-58.4043943435187,-34.5892582498282,pharmacy,44
658,RAMON L. FALCON,-58.464085619371204,-34.6308389443417,pharmacy,19
659,AV DIRECTORIO,-58.4305326085571,-34.627729831337,pharmacy,9
660,AV RIVADAVIA,-58.426363873596294,-34.6136045056057,pharmacy,12
661,ARCE,-58.43282380635961,-34.570004176736695,pharmacy,0
662,AV DIRECTORIO,-58.4557117035375,-34.6317219561115,pharmacy,19
663,MARTINIANO LEGUIZAMÓN,-58.5150555088854,-34.6475315757036,pharmacy,21
664,AV EVA PERON,-58.4774353354358,-34.656917545446,pharmacy,10
665,AV J. DE GARAY,-58.3831855379649,-34.6267840137021,pharmacy,38
666,SARMIENTO,-58.393263501090296,-34.6055440534294,pharmacy,4
667,CAAGUAZU,-58.5165883136484,-34.6449942687931,pharmacy,21
668,JOSÉ EVARISTO URIBURU,-58.3970825957269,-34.5922982439324,pharmacy,44
669,AV FEDERICO LACROZE,-58.4534085818758,-34.584700564489495,pharmacy,26
671,JURAMENTO,-58.459951233519,-34.563740205742995,pharmacy,1
672,ALMAFUERTE,-58.413336874858295,-34.6426501168578,pharmacy,46
673,AV LAS HERAS,-58.3976906882693,-34.5872967180815,pharmacy,44
674,PARAGUAY,-58.43201534678471,-34.5784155528301,pharmacy,0
675,AV RIVADAVIA,-58.455841203829,-34.626134676698605,pharmacy,19
676,SANCHEZ DE BUSTAMANTE,-58.4101455609964,-34.5922168617872,pharmacy,44
677,ESMERALDA,-58.378363243815095,-34.5930957598104,pharmacy,35
678,SANTIAGO DEL ESTERO,-58.3850370557726,-34.6100568456182,pharmacy,36
679,AV RIVADAVIA,-58.441846437155505,-34.6211881576852,pharmacy,11
680,AV EMILIO CASTRO,-58.52467669475921,-34.6560581811924,pharmacy,21
681,AV DIRECTORIO,-58.49191329766129,-34.651860410297296,pharmacy,18
682,AV INDEPENDENCIA,-58.4079247337179,-34.6199244193643,pharmacy,5
683,RIOBAMBA,-58.394117413488,-34.604054443626296,pharmacy,4
684,RIOBAMBA,-58.3949510025312,-34.5963381824634,pharmacy,44
685,AV DIAZ VELEZ,-58.4339107090964,-34.608925167509604,pharmacy,11
686,AUSTRIA,-58.4065733390267,-34.5901048983679,pharmacy,44
687,AV LOPE DE VEGA,-58.519922046974294,-34.6177865244575,pharmacy,23
688,AV LA PLATA,-58.4255091426112,-34.631633766702,pharmacy,39
689,JURAMENTO,-58.448906344586106,-34.5576096306702,pharmacy,1
690,TRES ARROYOS,-58.4663159890356,-34.612212926889896,pharmacy,7
691,AV CABILDO,-58.471199426132095,-34.544594306525894,pharmacy,2
692,AV RIVADAVIA,-58.42984229122501,-34.61556963238,pharmacy,11
693,AV VARELA,-58.4558965932119,-34.641724929171,pharmacy,19
694,AV CORDOBA,-58.4087668569197,-34.598250992333604,pharmacy,4
695,AV CRAMER,-58.459972888215,-34.5659929703843,pharmacy,1
696,AV AVELLANEDA,-58.4334566511635,-34.612424898538606,pharmacy,11
697,TUCUMAN,-58.3863330919205,-34.6014647609557,pharmacy,43
698,AV DIRECTORIO,-58.4789624962881,-34.6404987529095,pharmacy,10
699,AV SANTA FE,-58.40291369826261,-34.5944795429141,pharmacy,44
700,LAVALLE,-58.3911557544349,-34.603283127677,pharmacy,43
701,LAMBARE,-58.430246831455705,-34.6013964267125,pharmacy,12
702,AV JUAN B. ALBERDI,-58.4949847316753,-34.644524791189,pharmacy,17
703,ALTE BROWN,-58.36021332926929,-34.6326811804178,pharmacy,24
704,AV GRAL PAZ,-58.528786648510106,-34.640735480471804,pharmacy,21
705,AV ALMTE. BROWN,-58.358546384580606,-34.635470353664395,pharmacy,24
706,AV DIRECTORIO,-58.4336042517245,-34.628184394226196,pharmacy,9
707,AV SANTA FE,-58.422158268365,-34.5811288505447,pharmacy,0
708,AV CASEROS,-58.4042143173809,-34.6366869554671,pharmacy,40
709,AV LAS HERAS,-58.40349658937679,-34.5836479352117,pharmacy,44
710,AV DE LOS INCAS,-58.4792955072529,-34.5852775693813,pharmacy,47
711,AV JOSE MARIA MORENO,-58.4355917196253,-34.6207891749724,pharmacy,11
712,TENIENTE GENERAL JUAN D PERON,-58.4032955417329,-34.607657705488,pharmacy,4
713,SARMIENTO,-58.4280518254911,-34.6039868773866,pharmacy,12
714,AV CORRIENTES,-58.426442196240394,-34.6024442345194,pharmacy,12
715,AV CORDOBA,-58.3749376706444,-34.598494797757304,pharmacy,35
716,AV RIVADAVIA,-58.4483188282065,-34.6235996918059,pharmacy,11
717,25 DE MAYO,-58.3714192654082,-34.6016358677843,pharmacy,43
718,AV MEDRANO,-58.42090958426989,-34.6043886251814,pharmacy,12
719,AV LOPE DE VEGA,-58.507174994455994,-34.6279246382217,pharmacy,17
720,LA RIOJA,-58.4059270377349,-34.635835078796894,pharmacy,40
721,AV CARRASCO,-58.49178103401999,-34.6322329690173,pharmacy,22
722,LAVALLE,-58.3828061689298,-34.602419093494504,pharmacy,43
723,DELGADO,-58.45030250600221,-34.5798613571982,pharmacy,28
724,AV ALVAREZ THOMAS,-58.4579256805324,-34.5782312351196,pharmacy,28
725,BOLIVAR,-58.3729016443336,-34.6162094478685,pharmacy,41
726,AV FERNANDEZ DE LA CRUZ,-58.47360029650189,-34.6857389564325,pharmacy,34
727,AV OLAZABAL,-58.4585502866185,-34.560516106336195,pharmacy,1
728,AV CALLAO,-58.3928360309163,-34.601840677508996,pharmacy,4
729,AV CORRIENTES,-58.376768574164,-34.603584074893796,pharmacy,43
730,AV SAN MARTIN.,-58.4577101665164,-34.6045021131072,pharmacy,6
731,AV SAN MARTIN,-58.4638518218179,-34.6029313163918,pharmacy,27
732,AV SAN MARTIN,-58.4527058316454,-34.6057996050273,pharmacy,6
733,AV SAN MARTIN,-58.46028508316979,-34.6038370511464,pharmacy,27
734,MAIPU,-58.3766023393262,-34.5994821584858,pharmacy,43
735,COMBATE DE LOS POZOS,-58.393438283815605,-34.6143063768946,pharmacy,4
736,DR. JUAN F. ARANGUREN,-58.4697412143303,-34.624641442987496,pharmacy,19
737,HIPOLITO YRIGOYEN,-58.4139435985939,-34.6125843547683,pharmacy,12
738,AV SAN JUAN,-58.409815755501604,-34.6248796936713,pharmacy,5
739,PARERA,-58.38640474473021,-34.592081683413895,pharmacy,35
740,AV GAONA,-58.468570606707296,-34.617750831779496,pharmacy,19
741,AV ALVAREZ THOMAS,-58.4628749641502,-34.5781803966567,pharmacy,3
742,TENIENTE GENERAL JUAN D PERON,-58.390215654387205,-34.606860881143795,pharmacy,43
743,CABELLO,-58.411914951679,-34.580219339279104,pharmacy,0
744,AV EVA PERON,-58.453466527874795,-34.638747389486,pharmacy,19
745,AV MEDRANO,-58.4211327723368,-34.6065895543311,pharmacy,12
746,AV ALVAREZ THOMAS,-58.4640526298877,-34.578387648001396,pharmacy,3
747,SUCRE,-58.452052624317105,-34.5622704275765,pharmacy,1
748,AV SAN MARTIN,-58.5106295584144,-34.591616521884106,pharmacy,23
749,AV CHIVILCOY,-58.51162860603579,-34.6003472601139,pharmacy,23
750,25 DE MAYO,-58.37115103105129,-34.6052192399183,pharmacy,43
751,CHACABUCO,-58.375607600997895,-34.618989258439,pharmacy,41
752,CHARCAS,-58.4094703329286,-34.592725551452105,pharmacy,44
753,AV CALLAO,-58.3919725468125,-34.6057318124541,pharmacy,43
754,AV SAN MARTIN,-58.4640393489108,-34.6032609972623,pharmacy,7
755,AZCUENAGA,-58.39999831828361,-34.5965978745995,pharmacy,44
756,AV JUJUY,-58.4042533209466,-34.6171912619357,pharmacy,4
757,MONTES DE OCA,-58.37440165664229,-34.6408879800251,pharmacy,32
758,LA PLATA,-58.428743577759896,-34.6163448913442,pharmacy,12
759,ROQUE SAENZ PEÑA,-58.375561490774096,-34.6066966782975,pharmacy,43
760,AV J. DE GARAY,-58.4221300321224,-34.6322205390489,pharmacy,39
761,LAVALLE,-58.390993685061204,-34.603271311987804,pharmacy,43
762,AV CABILDO,-58.460996784162795,-34.5567972167599,pharmacy,1
763,AV SANTA FE,-58.4273790134682,-34.5780962654003,pharmacy,0
764,AV RIVADAVIA,-58.456385651434296,-34.6263627016887,pharmacy,19
765,BARTOLOME MITRE,-58.402570604318,-34.6088332863784,pharmacy,4
766,HONORIO PUEYRREDON,-58.4428062487344,-34.6107084900165,pharmacy,11
767,AV JUAN B. JUSTO,-58.441774815223205,-34.5927755799224,pharmacy,6
768,AV ALVAREZ THOMAS,-58.477446990059605,-34.5760774735596,pharmacy,14
769,AV TRIUNVIRATO,-58.4823586497502,-34.576645612093394,pharmacy,14
770,AV JOSE MARIA MORENO,-58.4350034287819,-34.6211490544745,pharmacy,11
771,AV COBO,-58.43215586574139,-34.6415187104931,pharmacy,9
772,AV GAONA,-58.462569860702295,-34.6152587475788,pharmacy,19
773,AV SAN MARTIN,-58.5161380949718,-34.5899577816076,pharmacy,23
774,PIEDRAS,-58.372146555599,-34.6304356478456,pharmacy,32
776,POTOSI,-58.4244785436659,-34.6074194826752,pharmacy,12
777,AV CORDOBA,-58.4219872376554,-34.5979027626553,pharmacy,12
778,AV SANTA FE,-58.407986847501704,-34.591066768317596,pharmacy,44
779,URIARTE,-58.4235860331664,-34.5811261000913,pharmacy,0
780,AV ANGEL GALLARDO,-58.440141077890004,-34.605660275062796,pharmacy,6
781,AZCUENAGA,-58.3997688262829,-34.594279333930395,pharmacy,44
782,MANUEL UGARTE,-58.4591090261947,-34.555264215852496,pharmacy,1
783,AV DE MAYO,-58.3825168610955,-34.6089439365543,pharmacy,36
784,LAVALLE,-58.3825081699512,-34.602722027822296,pharmacy,43
786,AV CORRIENTES,-58.406562067009,-34.604605217308105,pharmacy,4
787,HIPOLITO YRIGOYEN,-58.4135438959811,-34.6128443827079,pharmacy,12
788,AV SEGUROLA,-58.4897884121323,-34.6282979203955,pharmacy,22
789,ARABE SIRIA,-58.4124358920156,-34.5793091666947,pharmacy,0
790,AV CORDOBA,-58.3872860885318,-34.599493781372104,pharmacy,43
791,AV LOPE DE VEGA,-58.5237113135263,-34.614793802637,pharmacy,23
792,AV BEIRO FRANCISCO,-58.5285624184416,-34.61642825282561,pharmacy,45
793,LA PAMPA,-58.4594806603256,-34.5681244517598,pharmacy,1
794,TRELLES,-58.46649807850329,-34.598911957874606,pharmacy,27
795,SARMIENTO,-58.396023583681405,-34.6057370267693,pharmacy,4
796,AV DE LOS CONSTITUYENTES,-58.505728962944204,-34.5721432865486,pharmacy,16
797,VEDIA,-58.488349731328796,-34.5456175849052,pharmacy,15
798,VICENTE LOPEZ,-58.389947434277,-34.5915163554249,pharmacy,44
799,AV EVA PERON,-58.479084370068705,-34.6582890604831,pharmacy,30
800,AV RIVADAVIA,-58.5245372304212,-34.639182849440104,pharmacy,21
801,AV DE LOS CORRALES,-58.502777990836,-34.6644780693344,pharmacy,18
802,AV RIESTRA,-58.4755348428904,-34.677230619228894,pharmacy,30
803,CHILAVERT,-58.4751890063058,-34.685817390694105,pharmacy,34
804,TENIENTE GENERAL JUAN D PERON,-58.386077496332206,-34.6062364821533,pharmacy,43
805,AV J. DE GARAY,-58.4008097081991,-34.628478754937,pharmacy,5
806,TENIENTE GENERAL JUAN D PERON,-58.4051881676231,-34.607841619386,pharmacy,4
807,MORENO,-58.375275456005,-34.611688509474604,pharmacy,36
808,LARREA,-58.402226520606,-34.606916272713,pharmacy,4
809,BARTOLOME MITRE,-58.3832006954415,-34.607238101305,pharmacy,43
810,ADOLFO ALSINA,-58.3921453426912,-34.6113421220832,pharmacy,4
811,LAVALLE,-58.3968082903475,-34.6031596963127,pharmacy,4
812,AV RIVADAVIA,-58.400820594059,-34.6096408366918,pharmacy,4
813,AV BELGRANO,-58.39047294226361,-34.6139095054341,pharmacy,36
814,AV SAN MARTIN,-58.5055632231733,-34.593508044146496,pharmacy,23
815,AV TRIUNVIRATO,-58.4881015695852,-34.573219413390795,pharmacy,14
816,GUEMES,-58.41273050006561,-34.5895328607199,pharmacy,0
817,ARENALES,-58.393506250242204,-34.5946555126945,pharmacy,44
818,GUIDO,-58.3881372366236,-34.591646280507,pharmacy,44
819,AV RIVADAVIA,-58.441795674159,-34.6204538757034,pharmacy,11
820,AVELLANEDA,-58.4393359009375,-34.614782969126,pharmacy,11
821,AV PUEYRREDON,-58.4022624834181,-34.5937511116215,pharmacy,44
822,A ALSINA,-58.4061197905968,-34.6126355847166,pharmacy,4
823,F.F. DE LA CRUZ AV,-58.4734714927344,-34.6861404306831,pharmacy,34
824,JUAN B. ALBERDI AV,-58.511673762791396,-34.658457423537804,pharmacy,18
825,RODRIGUEZ PEÑA,-58.39168179138411,-34.5963983248996,pharmacy,44
826,AV BOEDO,-58.416634984527704,-34.6221081822462,pharmacy,39
827,PEDERNERA,-58.4636977840796,-34.6308046321716,pharmacy,19
828,AV SAN MARTIN,-58.4689232714847,-34.6020450287759,pharmacy,7
829,AV LAS HERAS,-58.396542983336495,-34.5877506493828,pharmacy,44
830,SOMELLERA,-58.4768728585413,-34.676453368423,pharmacy,30
831,AV ALVAREZ JONTE,-58.4938725421476,-34.6133141810644,pharmacy,29
832,MARCELO T. DE ALVEAR,-58.401822652119506,-34.596438148539,pharmacy,44
833,AV SANTA FE,-58.422303462608006,-34.5810364067488,pharmacy,0
834,AV CALLAO,-58.3921310399518,-34.6035640946616,pharmacy,43
835,AV ENTRE RIOS,-58.3920002419009,-34.611842581261804,pharmacy,4
836,MANSILLA,-58.4087412072446,-34.5944427521557,pharmacy,44
837,AV CORDOBA,-58.400580577068794,-34.5997302364452,pharmacy,4
839,CHARCAS,-58.422836426882895,-34.5837388561099,pharmacy,0
840,AV PUEYRREDON,-58.400958721277895,-34.591898831904395,pharmacy,44
841,AV GRAL PAZ,-58.5143833702724,-34.664127254098304,pharmacy,18
842,AV LA PLATA,-58.424542631813495,-34.634905387123105,pharmacy,39
843,JERONIMO SALGUERO,-58.40263750014179,-34.5746274924802,pharmacy,0
844,AV RIVADAVIA,-58.5271685473428,-34.6393852134593,pharmacy,21
845,AV RIVADAVIA,-58.4671866321951,-34.6302745439545,pharmacy,19
846,BENITO PEREZ GALDOS,-58.360575380256904,-34.631825109235,pharmacy,24
848,AV CALLAO,-58.391800202671206,-34.608385248581904,pharmacy,43
849,AV INDEPENDENCIA,-58.4223484848623,-34.6212289639216,pharmacy,12
850,AV NAZCA,-58.4833164257857,-34.6087046890065,pharmacy,29
851,AV CASEROS,-58.388770544359595,-34.633944165668396,pharmacy,32
852,ACASSUSO,-58.5135283068545,-34.6485816535263,pharmacy,21
853,MURGUIONDO,-58.476799106817104,-34.675831904692004,pharmacy,30
854,AV RIVADAVIA,-58.4998021157006,-34.6376646597801,pharmacy,17
855,GRAL. URQUIZA,-58.4091774513906,-34.617863046613806,pharmacy,4
856,PEPIRI,-58.406273059029395,-34.6556617637856,pharmacy,46
857,AV CABILDO,-58.452029067244794,-34.5665080184887,pharmacy,28
858,AV CORDOBA,-58.3792545250364,-34.5991353157315,pharmacy,43
859,AV LAS HERAS,-58.40032016438621,-34.584402364481804,pharmacy,44
860,AV CORRIENTES,-58.410699291038895,-34.6038229852039,pharmacy,4
861,MONTEVIDEO,-58.3898229968935,-34.5950417952351,pharmacy,44
862,AV GAONA,-58.4574113602694,-34.6128698073212,pharmacy,11
863,AV PUEYRREDON,-58.403347962575204,-34.5966960871519,pharmacy,44
864,AV RIVADAVIA,-58.397963350385,-34.6094214594827,pharmacy,4
865,MONTES DE OCA,-58.37440079111771,-34.6385557281253,pharmacy,32
866,AV CORDOBA,-58.387631986487996,-34.5991511669305,pharmacy,44
867,AV OLLEROS,-58.4382941295303,-34.565455070409605,pharmacy,0
868,AV LUIS MARIA CAMPOS,-58.443596192872896,-34.562633605825894,pharmacy,1
869,AV CABILDO,-58.44554014814239,-34.569840394345,pharmacy,28
870,AV CABILDO,-58.4547481854251,-34.5646048398453,pharmacy,1
871,AV RIVADAVIA,-58.4284733292661,-34.614556642378304,pharmacy,12
872,AV RIVADAVIA,-58.4200960075593,-34.6110311567017,pharmacy,12
873,AV CORRIENTES,-58.419975498827895,-34.6034542794015,pharmacy,12
874,AV RIVADAVIA,-58.468012477224796,-34.6301028372177,pharmacy,19
875,AV RIVADAVIA,-58.525516404101104,-34.639272132164805,pharmacy,21
876,AV PUEYRREDON,-58.4051202087547,-34.6040967612008,pharmacy,4
877,AV CABILDO,-58.45878756275821,-34.5598940891883,pharmacy,1
878,AV TRIUNVIRATO,-58.486039238027104,-34.5747828618343,pharmacy,14
879,AV WARNES,-58.474447021536896,-34.5965977331471,pharmacy,27
880,AV RIVADAVIA,-58.456314465419595,-34.6267385494055,pharmacy,19
881,AV RIVADAVIA,-58.441066491524104,-34.6201529164099,pharmacy,11
882,AV CORRIENTES,-58.4396517787533,-34.5993404181869,pharmacy,6
883,AV RIVADAVIA,-58.4622995814449,-34.6289343614365,pharmacy,19
884,LAVALLE,-58.3798510862918,-34.6022877550185,pharmacy,43
885,AV LEANDRO N ALEM,-58.37111765587271,-34.5993969453176,pharmacy,43
886,LIBERTAD,-58.3842265285716,-34.5932217012965,pharmacy,35
887,SARMIENTO,-58.3735229375474,-34.604264251159,pharmacy,43
888,AV RIVADAVIA,-58.41048361579271,-34.6106224272506,pharmacy,4
889,GASCON,-58.4245019829879,-34.6040696590673,pharmacy,12
890,AV FEDERICO LACROZE,-58.453059733897106,-34.5834119104573,pharmacy,26
891,AV GAONA,-58.4680329622933,-34.6174930445099,pharmacy,19
892,FLORIDA,-58.375467842826296,-34.6025082650212,pharmacy,43
893,AV CORRIENTES,-58.3926958010382,-34.604616082090104,pharmacy,4
894,CUENCA,-58.494026805281,-34.6027224295511,pharmacy,29
895,AV JUAN B. ALBERDI,-58.502513831312704,-34.6513191448784,pharmacy,18
896,DEFENSA,-58.3711896797056,-34.621672846251194,pharmacy,41
897,ALICIA MOREAU DE JUSTO,-58.3670402075564,-34.602641632832,pharmacy,48
898,AV CASEROS,-58.4159240307124,-34.6390786215227,pharmacy,46
899,FLORIDA,-58.375271442431895,-34.6066660525577,pharmacy,43
900,AV ENTRE RIOS,-58.391591609559406,-34.6113438558892,pharmacy,36
901,SARMIENTO,-58.38772347788779,-34.605485568776004,pharmacy,43
902,AV BELGRANO,-58.3830790457794,-34.6134003586275,pharmacy,36
903,AV NAZCA,-58.4814750490348,-34.611670687309605,pharmacy,31
904,FLORIDA,-58.3751661536243,-34.6073391682492,pharmacy,43
905,MAURE,-58.4355328260616,-34.5659188987528,pharmacy,0
906,AV CORRIENTES,-58.3736072652016,-34.60339251552389,pharmacy,43
907,DIAGONAL ROQUE SAENZ PEÑA,-58.3796283061979,-34.6050258458244,pharmacy,43
908,AV LIBERTADOR,-58.452728609318896,-34.5511444913032,pharmacy,1
909,AV CORDOBA,-58.376527080980104,-34.598607192028304,pharmacy,35
910,PERU,-58.3750831174933,-34.6088425507185,pharmacy,36
911,AV CORRIENTES,-58.3842021216092,-34.604037760229694,pharmacy,43
912,AV CORRIENTES,-58.444274825605,-34.5945229759416,pharmacy,6
913,AV CABILDO,-58.448840932185895,-34.568194815493804,pharmacy,28
914,AV ALVAREZ THOMAS,-58.4482704616498,-34.5816985780007,pharmacy,26
915,AV RIVADAVIA,-58.483177486148996,-34.6339454408875,pharmacy,22
916,AV FEDERICO LACROZE,-58.450097851972295,-34.5787115075176,pharmacy,28
917,AV ASAMBLEA,-58.4360463417029,-34.634874008649604,pharmacy,9
918,AV SAN JUAN,-58.4025158073989,-34.623637676993106,pharmacy,5
919,AV CORDOBA,-58.4142416615962,-34.5977310760405,pharmacy,44
920,AV GAONA,-58.445986820091704,-34.6073096955312,pharmacy,6
921,AV CORDOBA,-58.4225523840979,-34.5975384404969,pharmacy,0
922,AV BEIRO FRANCISCO,-58.5245436802999,-34.6138471556383,pharmacy,23
923,AV JUAN B. ALBERDI,-58.5167180400686,-34.6613521432621,pharmacy,18
924,AV LA PLATA,-58.428615619516,-34.619053047476896,pharmacy,11
925,MOLDES,-58.4553935457995,-34.5680296145268,pharmacy,28
926,AV PEDRO GOYENA,-58.437849770892896,-34.625925578751996,pharmacy,11
927,AV CHORROARIN,-58.469719818253296,-34.5789723064977,pharmacy,3
928,AV BEIRO FRANCISCO,-58.50296824261889,-34.600629914200304,pharmacy,29
929,AV CORDOBA,-58.3938247024523,-34.5994792722419,pharmacy,44
930,AV CORRIENTES,-58.4106156641723,-34.6042133371481,pharmacy,4
931,AV CABILDO,-58.4664178242573,-34.5515110397836,pharmacy,2
932,AV INDEPENDENCIA,-58.403287199419296,-34.6190065751936,pharmacy,5
933,AV CABILDO,-58.462979103282606,-34.5546857485896,pharmacy,2
934,AV RIVADAVIA,-58.4872066911541,-34.6353168449471,pharmacy,22
935,AV CABILDO,-58.473273019211206,-34.541875985549694,pharmacy,2
936,AV CORDOBA,-58.4300689244769,-34.594080900055,pharmacy,0
937,AV BEIRO FRANCISCO,-58.512224735549495,-34.6063382329969,pharmacy,23
938,AV CABILDO,-58.4698016409122,-34.5465249993056,pharmacy,2
939,AV ELCANO,-58.4586971473726,-34.572266401011,pharmacy,28
940,AV CALLAO,-58.3917794746405,-34.608672399742396,pharmacy,43
941,AV LA PLATA,-58.4228038925875,-34.6431837955477,pharmacy,46
942,AV CORRIENTES,-58.4309804588021,-34.601991977470696,pharmacy,12
943,AV TRIUNVIRATO,-58.4833317028491,-34.5759969112223,pharmacy,14
944,AV CORDOBA,-58.40362296113379,-34.598702843948196,pharmacy,4
945,AV LIBERTADOR,-58.4484825467404,-34.5560971915707,pharmacy,1
946,AV TRIUNVIRATO,-58.474591812288196,-34.5812519599115,pharmacy,47
947,JURAMENTO,-58.4525556858585,-34.5594008487738,pharmacy,1
948,TALCAHUANO,-58.385906064808,-34.5965610800121,pharmacy,35
949,AV BELGRANO,-58.374918048912704,-34.6128468621148,pharmacy,36
950,AV CABILDO,-58.4569320370549,-34.5614477221814,pharmacy,1
951,AV SANTA FE,-58.37864232922689,-34.5952896566621,pharmacy,35
952,F GARCIA LORCA,-58.4453569895014,-34.6174387613526,pharmacy,11
953,JUANA MANSO,-58.3627794479696,-34.6115004497474,pharmacy,48
954,AV SAN MARTIN,-58.4550881540476,-34.6055582571114,pharmacy,11
955,AV DIRECTORIO,-58.4672415888803,-34.6356284156248,pharmacy,19
956,AV GRAL. MOSCONI,-58.4976482601661,-34.5836946358652,pharmacy,16
957,CUENCA,-58.49544808624229,-34.6008249954451,pharmacy,29
958,AV CRAMER,-58.462830222654496,-34.5626804325139,pharmacy,1
959,AV BOEDO,-58.416360238304996,-34.6248787135972,pharmacy,39
960,JUANA MANSO,-58.363791458306295,-34.602899105067394,pharmacy,48
961,AV GAONA,-58.46048473732429,-34.6144831152348,pharmacy,19
962,MONTES DE OCA,-58.374413881642,-34.6385182522485,pharmacy,32
963,ARENALES,-58.380185276509295,-34.5939442182027,pharmacy,35
964,AV JUAN B. ALBERDI,-58.4526891507382,-34.6280168130259,pharmacy,11
965,AV EVA PERON,-58.4564234208146,-34.6410592084166,pharmacy,19
966,SERRANO,-58.43635815093371,-34.5924201083384,pharmacy,6
967,PARAGUAY,-58.4087156335716,-34.5961991333228,pharmacy,44
968,GASCON,-58.4239660378146,-34.6034343283915,pharmacy,12
969,MANSILLA,-58.4067742733313,-34.5952431147469,pharmacy,44
970,BULNES,-58.4113241630864,-34.5879481520442,pharmacy,0
971,MARIANO ACOSTA,-58.4664739307055,-34.646722009589,pharmacy,10
972,MALABIA,-58.4385408782501,-34.5984401285355,pharmacy,6
973,TEODORO GARCIA,-58.445522720440295,-34.569057360322105,pharmacy,0
974,VIRREY AVILES,-58.4601586967241,-34.5750949083545,pharmacy,28
975,AV CABILDO,-58.4604715259176,-34.5580056101252,pharmacy,1
976,AV CORRIENTES,-58.446334597719094,-34.593142911925696,pharmacy,6
977,AV AVELLANEDA,-58.4811713525062,-34.6290618403833,pharmacy,8
978,AV RIVADAVIA,-58.4306883366975,-34.615944420321306,pharmacy,11
979,AV LAS HERAS,-58.4069560101857,-34.5829940747071,pharmacy,0
980,JURAMENTO,-58.449927000841505,-34.5578161104965,pharmacy,1
981,GODOY CRUZ,-58.423150130863505,-34.5761244806357,pharmacy,0
982,AV CORDOBA,-58.411732429747495,-34.597833241991,pharmacy,44
983,SANTOS DUMONT,-58.447187793908604,-34.5827582351691,pharmacy,26
984,LA PAMPA,-58.4639141527676,-34.5707283915042,pharmacy,1
985,BACACAY,-58.463218378944305,-34.626130135872806,pharmacy,19
986,YERBAL,-58.4700663577657,-34.629237356599695,pharmacy,19
987,AV JOSE MARIA MORENO,-58.436180343282395,-34.619284779327394,pharmacy,11
988,AV RIVADAVIA,-58.4620111996229,-34.628845766749,pharmacy,19
989,AV RIVADAVIA,-58.436732289906594,-34.6186459464494,pharmacy,11
990,AV SANTA FE,-58.3855198157325,-34.595499879015605,pharmacy,35
991,AV DEL LIBERTADOR,-58.465143386561,-34.538959515426,pharmacy,2
992,VIAMONTE,-58.3747054019921,-34.599656986854896,pharmacy,43
993,ARENALES,-58.386009669174,-34.594722099724194,pharmacy,35
994,AV SANTA FE,-58.3990593739773,-34.5950976354525,pharmacy,44
995,AV CALLAO,-58.392306822371594,-34.6069894486155,pharmacy,4
996,AV CALLAO,-58.390592585349594,-34.590814316887304,pharmacy,44
997,AV CABILDO,-58.4451986680851,-34.5700140511822,pharmacy,28
998,AV RIVADAVIA,-58.4611818664142,-34.6282201625234,pharmacy,19
999,AV RIVADAVIA,-58.467206149791096,-34.6298917870105,pharmacy,19
1000,AV DEL LIBERTADOR,-58.464277637977894,-34.5403971724373,pharmacy,2
1001,AV PUEYRREDON,-58.4017257590373,-34.5925651466849,pharmacy,44
1002,AV DEL LIBERTADOR,-58.4595194537916,-34.5451956124796,pharmacy,2
1003,AV SANTA FE,-58.407651278060705,-34.5914392455794,pharmacy,44
1004,AV CORRIENTES,-58.395166417271994,-34.6043287462495,pharmacy,4
1005,AV CABILDO,-58.4599014988768,-34.5579974637121,pharmacy,1
1006,JURAMENTO,-58.451124936564895,-34.5585741594136,pharmacy,1
1007,AV SAN JUAN,-58.3845155890442,-34.6224956424631,pharmacy,38
1008,AV FEDERICO LACROZE,-58.455281872751506,-34.5866663569398,pharmacy,26
1009,NUEVA YORK,-58.52238166369761,-34.6065758292468,pharmacy,23
1010,AV CORRIENTES,-58.3829016864886,-34.6035999642303,pharmacy,43
1011,CHACABUCO,-58.376536650159906,-34.6095422191076,pharmacy,36
1012,HIPOLITO YRIGOYEN,-58.3894654362685,-34.6102902899995,pharmacy,36
1013,AV RIVADAVIA,-58.487476675101604,-34.6349861322019,pharmacy,22
1014,AV NAZCA,-58.482973520346796,-34.6097951302633,pharmacy,31
1015,AV OLIVERA,-58.4873517241803,-34.6370371571667,pharmacy,22
1016,AV GAONA,-58.4744582595685,-34.6204415262496,pharmacy,31
1017,AV CABILDO,-58.452565552288,-34.5657171481324,pharmacy,1
1018,ECHEVERRIA,-58.4633393171772,-34.567236667418605,pharmacy,1
1019,CUENCA,-58.4946040478298,-34.602027576020106,pharmacy,29
1020,LIBERTAD,-58.3841829661315,-34.598997133899495,pharmacy,35
1021,AV CORONEL DIAZ,-58.40670035294821,-34.584600459327696,pharmacy,44
1022,HUMBERTO PRIMO,-58.371979636952105,-34.620866125130895,pharmacy,41
1023,AV CASEROS,-58.4047483105297,-34.6371113222382,pharmacy,40
1024,DEAN FUNES,-58.40467126778629,-34.6308689999373,pharmacy,40
1025,AV DE LOS CONSTITUYENTES,-58.500949497966396,-34.5753117271806,pharmacy,16
1026,AV OLAZABAL,-58.4887453109116,-34.5783576169024,pharmacy,14
1027,JOSE CABRERA,-58.4127314266733,-34.5967457789691,pharmacy,44
1028,CERRITO,-58.3829078978331,-34.5962801615059,pharmacy,35
1029,AV LEANDRO N. ALEM,-58.370582776806,-34.6035410214166,pharmacy,43
1030,AV CORRIENTES,-58.44397232106179,-34.5953395730263,pharmacy,6
1031,AV CONGRESO,-58.4635311712816,-34.5561902276119,pharmacy,1
1032,PICHINCHA,-58.399140328723405,-34.6122106001848,pharmacy,4
1033,LA PAMPA,-58.46957453052939,-34.5735412580977,pharmacy,14
1034,AV CORDOBA,-58.402588273945,-34.5988619282951,pharmacy,44
1035,AV BEIRO FRANCISCO,-58.502901124698106,-34.600134622313696,pharmacy,23
1036,AV JUJUY,-58.4009950771172,-34.6305184994193,pharmacy,40
1037,AV JUAN B. ALBERDI,-58.5030534509349,-34.6518758417769,pharmacy,18
1038,TRAFUL,-58.4152882402962,-34.652185924815996,pharmacy,46
1039,AV CRAMER,-58.46809298444321,-34.5565695278083,pharmacy,2
1040,AV EVA PERON,-58.48792324247211,-34.663254740350396,pharmacy,30
1041,CARLOS PELLEGRINI,-58.380771799112104,-34.6033840004483,pharmacy,43
1042,CARLOS PELLEGRINI,-58.3808829368671,-34.601631269110996,pharmacy,43
1043,TUCUMAN,-58.379945104301,-34.6014145302607,pharmacy,43
1044,LAVALLE,-58.3758364031627,-34.6024360664165,pharmacy,43
1045,AV CORRIENTES,-58.37961341667,-34.6034029821733,pharmacy,43
1046,HIPOLITO YRIGOYEN,-58.3845922501203,-34.6100124613579,pharmacy,36
1047,ESMERALDA,-58.378064752963,-34.601348625105096,pharmacy,43
1048,AV GRAL PAZ,-58.508890046313105,-34.5699458435785,pharmacy,14
1049,PARANA,-58.3876077674162,-34.606772257159,pharmacy,43
1050,PTE. JOSÉ EVARISTO URIBURU,-58.3976928103665,-34.593959819709994,pharmacy,44
1051,JUNCAL,-58.3971710411547,-34.5930720133671,pharmacy,44
1052,TUCUMAN,-58.3768772927483,-34.6009924975363,pharmacy,43
1053,CARLOS CALVO,-58.4164776557331,-34.6240191780842,pharmacy,39
1054,AV CABILDO,-58.4480870006834,-34.568070823582104,pharmacy,0
1055,CARHUE,-58.5251903420547,-34.640018869763104,pharmacy,21
1056,AV RIVADAVIA,-58.480408379226,-34.6336872914665,pharmacy,8
1057,NEUQUEN,-58.4392932594758,-34.6158323208916,pharmacy,11
1058,AV GAONA,-58.4757134874646,-34.621114707729696,pharmacy,31
1059,AV REGIMIENTO DE PATRICIOS,-58.36973146663399,-34.6384563831253,pharmacy,32
1060,VENEZUELA,-58.4278521616313,-34.6180596159356,pharmacy,12
1061,AV LUIS MARIA CAMPOS,-58.4345378417571,-34.5712242839022,pharmacy,0
1062,AV RAUL SCALABRINI ORTIZ,-58.4234278848903,-34.5901259488608,pharmacy,0
1063,LARREA,-58.4017070881283,-34.6082921640864,pharmacy,4
1064,AV EVA PERON,-58.4663994911664,-34.6457582485923,pharmacy,10
1065,AV DIRECTORIO,-58.4544818709873,-34.6317026193173,pharmacy,19
1066,AV LA PLATA,-58.42744521561811,-34.6248706067349,pharmacy,11
1067,AV EVA PERON,-58.47847735212339,-34.6578444935925,pharmacy,10
1068,LIBERTAD,-58.383850594114506,-34.5984978068729,pharmacy,35
1069,IBARROLA,-58.5279617670928,-34.6418776952142,pharmacy,21
1070,ALICIA MOREAU DE JUSTO,-58.3665923514549,-34.6063059162718,pharmacy,48
1071,AV SAN MARTIN,-58.4577968723731,-34.6044811995538,pharmacy,6
1072,BRASIL,-58.38336866807771,-34.627776607908004,pharmacy,38
1073,AV PUEYRREDON,-58.406354112052405,-34.6076345109001,pharmacy,4
1074,AV CORDOBA,-58.3870214901525,-34.5991260776751,pharmacy,44
1075,AV RIVADAVIA,-58.4018880514658,-34.6100633958183,pharmacy,4
1076,AV DE MAYO,-58.3849688896247,-34.6094735642929,pharmacy,36
1077,AV LOPE DE VEGA,-58.5254545423105,-34.613607576125105,pharmacy,23
1078,AV ESTADO DE ISRAEL,-58.431806003293296,-34.6018882691677,pharmacy,12
1079,AV ENTRE RIOS,-58.3914661361162,-34.6174109794212,pharmacy,36
1080,CERRITO,-58.3823792173994,-34.6044958351567,pharmacy,43
1081,MONROE,-58.4850921188247,-34.5738379678475,pharmacy,14
1082,AV CABILDO,-58.4743452968246,-34.5411616642485,pharmacy,15
1083,AV RIVADAVIA,-58.4414348748935,-34.6203024886128,pharmacy,11
1084,AV RIVADAVIA,-58.45400915945021,-34.6254300130761,pharmacy,11
1085,AV SANTA FE,-58.4243239399508,-34.579593773627,pharmacy,0
1086,AV RIVADAVIA,-58.527072719308,-34.6393799744449,pharmacy,21
1087,AV CABILDO,-58.462492871716,-34.5551641444736,pharmacy,2
1088,ALVAREZ JONTE,-58.4837228330402,-34.6087960763261,pharmacy,29
1089,AV CORRIENTES,-58.4471310708323,-34.5918685238001,pharmacy,26
1090,AV GRAL PAZ,-58.5288427385126,-34.6398622408149,pharmacy,21
1091,AV MEDRANO,-58.4212056935537,-34.6113506295391,pharmacy,12
1092,AV PUEYRREDON,-58.40500335475701,-34.603628783537395,pharmacy,4
1093,AV RIVADAVIA,-58.468227442993204,-34.6301565479951,pharmacy,19
1094,CUENCA,-58.4973908654296,-34.598897674685,pharmacy,29
1095,AV CORRIENTES,-58.3930604324611,-34.6042653557231,pharmacy,4
1096,AV SAENZ,-58.416665852091796,-34.6529304197134,pharmacy,46
1097,AV CORRIENTES,-58.439420641206,-34.5990220603235,pharmacy,6
1098,AV CASEROS,-58.405296515126295,-34.636897219681,pharmacy,40
1099,RAMOS MEJIA,-58.374064665639104,-34.5907129503343,pharmacy,35
1100,AV CABILDO,-58.44344497372111,-34.5704516958807,pharmacy,0
1102,BRASIL,-58.38188203604079,-34.6280085456761,pharmacy,38
1103,MAIPU,-58.3765677341702,-34.602153313817304,pharmacy,43
1104,AV ALBERDI,-58.5026304834634,-34.6514723579541,pharmacy,18
1105,AV CORRIENTES,-58.399084047936,-34.6047959507829,pharmacy,4
1106,SOMELLERA,-58.4763577840797,-34.6759664972355,pharmacy,30
1107,AV CORRIENTES,-58.454419566663596,-34.5870523669182,pharmacy,26
1108,AV BOEDO,-58.41590564147101,-34.6249371047573,pharmacy,39
1109,AV REGIMIENTO DE PATRICIOS,-58.369794629641596,-34.6351809205544,pharmacy,24
1110,AV CABILDO,-58.4586743972237,-34.559414550708496,pharmacy,1
1111,AV JUAN B. ALBERDI,-58.4982268789543,-34.6473965144123,pharmacy,18
1112,GODOY CRUZ,-58.4244021764363,-34.5780159466456,pharmacy,0
1113,LAVALLE,-58.3921314990769,-34.6033280702992,pharmacy,43
1114,AV FEDERICO LACROZE,-58.448998754391695,-34.5776563237949,pharmacy,28
1115,SANABRIA,-58.5087803350855,-34.6080939469517,pharmacy,23
1116,JURAMENTO,-58.447947847798794,-34.5570239010825,pharmacy,1
1117,AV LIBERTADOR,-58.449715910573396,-34.5540100673602,pharmacy,1
1118,SAN MARTIN,-58.3734607699566,-34.606240817083396,pharmacy,43
1119,PARAGUAY,-58.3756470402639,-34.597422873636305,pharmacy,35
1121,AV CONGRESO,-58.4940883569061,-34.572030092053296,pharmacy,14
1123,AV RIVADAVIA,-58.4510547557539,-34.6246722062259,pharmacy,11
1124,CULLEN,-58.489964173875705,-34.5738742570955,pharmacy,14
1125,CONDE,-58.4507799484178,-34.5771864100753,pharmacy,28
1126,JOSE HERNANDEZ,-58.4565537676491,-34.567274445489694,pharmacy,1
1127,LARREA,-58.4021467297607,-34.5975772779612,pharmacy,44
1128,AV SAN MARTIN,-58.461248692724,-34.6035916901672,pharmacy,27
1129,AV AVELLANEDA,-58.467330561276505,-34.6252192024433,pharmacy,19
1130,AV JUAN B. ALBERDI,-58.458478756915,-34.630451615785496,pharmacy,19
1131,AV RIVADAVIA,-58.4833175566364,-34.633983277685196,pharmacy,22
1132,JUANA MANSO,-58.3615794153817,-34.617208778825,pharmacy,48
1133,AV CALLAO,-58.3926606531872,-34.5999976586174,pharmacy,43
1134,ACOYTE,-58.4378179587614,-34.6135553445838,pharmacy,11
1135,AV LAS HERAS,-58.402411800565204,-34.5836142345996,pharmacy,44
1136,AV CORRIENTES,-58.42134584543611,-34.6029546402754,pharmacy,12
1137,ALICIA MOREAU DE JUSTO,-58.367352568277504,-34.5999878308396,pharmacy,48
1138,AV CABILDO,-58.4696317990296,-34.546735036309,pharmacy,2
1139,RECONQUISTA,-58.3732445538626,-34.5962876507027,pharmacy,35
1140,AV CABILDO,-58.46921782302201,-34.5479770780184,pharmacy,15
1141,AV DE MAYO,-58.37601214375529,-34.608497134772,pharmacy,36
1142,AV RIVADAVIA,-58.396424851462896,-34.609312301833896,pharmacy,4
1143,LAVALLE,-58.4232751401903,-34.5979839025878,pharmacy,12
1145,AV SAN MARTIN,-58.4545997501005,-34.6053097593449,pharmacy,6
1146,PARAGUAY,-58.407577677393796,-34.5967184906036,pharmacy,44
1147,BOGOTA,-58.4640437253473,-34.6253435391257,pharmacy,19
1148,AV RAUL SCALABRINI ORTIZ,-58.4368574008189,-34.5988816187831,pharmacy,6
1149,ROMA,-58.5221454768693,-34.6258442972121,pharmacy,20
1150,AV INDEPENDENCIA,-58.419797061984994,-34.6214001637035,pharmacy,39
1151,AV DIRECTORIO,-58.42691109066689,-34.627190921317,pharmacy,9
1152,AV LUIS MARIA CAMPOS,-58.440809064241705,-34.5647214349574,pharmacy,0
1153,MONROE,-58.4519187162906,-34.5537030964855,pharmacy,1
1154,GUEMES,-58.425095593322496,-34.5803197805327,pharmacy,0
1155,NAON,-58.4722488553366,-34.567670084945,pharmacy,1
1156,MONROE,-58.48630237003471,-34.57409779102,pharmacy,14
1157,SOLIS,-58.3901715677976,-34.6107744071362,pharmacy,36
1158,AV SEGUROLA,-58.50130559443949,-34.619076554981,pharmacy,33
1159,MEXICO,-58.38429498777099,-34.6153361298216,pharmacy,36
1160,ADOLFO ALSINA,-58.392865368453904,-34.611757283976495,pharmacy,4
1161,J. RAMIREZ DE VELAZCO,-58.4383346637845,-34.5968736728867,pharmacy,6
1162,SARMIENTO,-58.398164470744895,-34.606204160295896,pharmacy,4
1163,SALTA,-58.3829307248592,-34.6296273883129,pharmacy,38
1164,SAN MARTIN DE TOURS,-58.404025226433895,-34.577858797953,pharmacy,0
1165,AV BEIRO FRANCISCO,-58.5262313454099,-34.6150854088205,pharmacy,45
1166,AV PUEYRREDON,-58.402411992755496,-34.5940688128835,pharmacy,44
1167,AV SAENZ,-58.416637844156504,-34.6504602980208,pharmacy,46
1168,URUGUAY,-58.3863913122586,-34.603154006669506,pharmacy,43
1169,MAURE,-58.4360376244794,-34.567129353538,pharmacy,0
1170,ACASSUSO,-58.513975351249506,-34.6489743625188,pharmacy,21
1171,PIEDRAS,-58.3770618625933,-34.6198859423425,pharmacy,41
1172,AV RIVADAVIA,-58.432031019544795,-34.616538069996,pharmacy,11
1173,MANSILLA,-58.40290770146729,-34.5964987427884,pharmacy,44
1174,VIAMONTE,-58.4041174872715,-34.6007324971428,pharmacy,4
1175,MARCELO T. DE ALVEAR,-58.388131160849504,-34.5969308383953,pharmacy,44
1176,AV RIVADAVIA,-58.3785889927444,-34.608075668403,pharmacy,43
1177,AV DIAZ VELEZ,-58.442913189912794,-34.608297055591,pharmacy,11
1178,AV RIVADAVIA,-58.470935722864,-34.6312504764821,pharmacy,19
1179,AZCUÉNAGA,-58.3991683725827,-34.5939170895523,pharmacy,44
1180,J B ALBERDI,-58.5053893102983,-34.6539792681507,pharmacy,18
1181,JUNCAL,-58.37965482172271,-34.5926872206568,pharmacy,35
1182,AV RICARDO BALBIN,-58.498759609609394,-34.5514976099476,pharmacy,15
1183,AV TRIUNVIRATO,-58.4722444577924,-34.582379492407796,pharmacy,3
1184,AV CABILDO,-58.4406270579271,-34.5724053977786,pharmacy,0
1185,SAAVEDRA,-58.40303502215771,-34.6119267651521,pharmacy,4
1186,AV JUAN B. JUSTO,-58.4539040486498,-34.6011679523153,pharmacy,6
1187,AV ASAMBLEA,-58.4325188426501,-34.6340835884835,pharmacy,9
1188,AV GAONA,-58.4595299202427,-34.614114630191494,pharmacy,19
1189,TERRADA,-58.4736380112751,-34.6192890050487,pharmacy,31
1192,AV SAN JUAN,-58.3988651280762,-34.6235487962508,pharmacy,5
1193,CUENCA,-58.4926345156684,-34.6044485653826,pharmacy,29
1194,AV BELGRANO,-58.3848274250974,-34.6131924971165,pharmacy,36
1195,TENIENTE GENERAL JUAN D PERON,-58.3995496488569,-34.6071576694472,pharmacy,4
1196,AV FEDERICO LACROZE,-58.4534419265837,-34.5840051001501,pharmacy,26
1197,MEDRANO,-58.420055622034,-34.5957628280778,pharmacy,0
1198,HIDALGO,-58.440839934609,-34.610440470517,pharmacy,11
1199,AV CALLAO,-58.3927096614893,-34.593097280796,pharmacy,44
1200,AV CABILDO,-58.4467287846178,-34.568813812308,pharmacy,0
1201,SUAREZ,-58.374055620892,-34.6387781038053,pharmacy,32
1202,MONTES DE OCA,-58.3742727225369,-34.639175605766304,pharmacy,32
1203,AV EMILIO CASTRO,-58.516798980483294,-34.652810484298705,pharmacy,18
1204,AV CORRIENTES,-58.3877769009383,-34.6039271993999,pharmacy,43
1205,AV LAS HERAS,-58.3941969352402,-34.5901121454785,pharmacy,44
1206,BARTOLOME MITRE,-58.40028860523461,-34.6086994608219,pharmacy,4
1207,AV GRAL. MOSCONI,-58.4994712598195,-34.5848312392029,pharmacy,16
1208,MONTEVIDEO,-58.3894943857185,-34.598771395556305,pharmacy,44
1209,AUSTRIA,-58.4023135658169,-34.5865473529947,pharmacy,44
1210,AV ENTRE RIOS,-58.391223693831606,-34.628671692015,pharmacy,40
1211,AV FEDERICO LACROZE,-58.4395788985748,-34.5647839237228,pharmacy,0
1212,PORTELA,-58.4451208844284,-34.660765928885105,pharmacy,37
1213,AV DIAZ VELEZ,-58.4302976136689,-34.608907590193,pharmacy,12
1214,AV DE MAYO,-58.3790189906388,-34.6090692082781,pharmacy,36
1215,AV CASEROS,-58.3778466817188,-34.6283590248953,pharmacy,38
1216,EMILIO MITRE,-58.4416035618041,-34.631491332273605,pharmacy,9
1217,AV LUIS MARIA CAMPOS,-58.432640408366794,-34.5732312422702,pharmacy,0
1218,AV FEDERICO LACROZE,-58.4464349776486,-34.572240409318,pharmacy,28
1219,SUCRE,-58.450258091494206,-34.5612009792999,pharmacy,1
1220,BONPLAND,-58.43779549604071,-34.5840075491789,pharmacy,0
1221,AV SAN MARTIN,-58.453488597463895,-34.6056375783171,pharmacy,6
1222,BRASIL,-58.380590042179605,-34.6279736156361,pharmacy,38
1223,CAMPANA,-58.4922324938877,-34.607609314008,pharmacy,29
1224,BARTOLOME MITRE,-58.389396848990295,-34.6077192783777,pharmacy,43
1225,RAMOS MEJIA,-58.372849774874204,-34.5874076305548,pharmacy,35
1226,CUZCO,-58.5276460679201,-34.638139466127,pharmacy,21
1227,VIAMONTE,-58.3870227500128,-34.6007177505086,pharmacy,43
1228,AV DE MAYO,-58.3837135238608,-34.609029888917306,pharmacy,36
1230,AMENABAR,-58.4606414508404,-34.5604465027496,pharmacy,1
1231,AV DORREGO,-58.44672759662151,-34.5903511840161,pharmacy,26
1232,AV CRISOLOGO LARRALDE,-58.467136103521995,-34.548624402149,pharmacy,2
1233,AV RIVADAVIA,-58.423278831528904,-34.612259046663,pharmacy,12
1234,AV BEIRO FRANCISCO,-58.5036402927839,-34.601029981655806,pharmacy,29
1235,AV SAN MARTIN,-58.452318709186,-34.6058991225658,pharmacy,6
1236,AV DIRECTORIO,-58.463636258187,-34.634206559503795,pharmacy,19
1237,RECONQUISTA,-58.372753797648,-34.6017642055922,pharmacy,43
1238,CERRITO,-58.3829098868226,-34.596101648193105,pharmacy,35
1239,AV SAENZ,-58.416635718753604,-34.6504296448068,pharmacy,46
1240,BARTOLOME MITRE,-58.4063255572814,-34.6086877583657,pharmacy,4
1241,JUNIN,-58.396126743441,-34.608897745095895,pharmacy,4
1242,AV RAUL SCALABRINI ORTIZ,-58.4384108267194,-34.5994388945124,pharmacy,6
1243,AV BEIRO FRANCISCO,-58.5275426679941,-34.6161188171834,pharmacy,45
1244,GARCIA DEL RIO,-58.485315229704504,-34.5544273560606,pharmacy,15
1245,JERONIMO SALGUERO,-58.405521356300106,-34.5769728238801,pharmacy,0
1246,AV DE MAYO,-58.3799938128767,-34.6091361595704,pharmacy,36
1247,AV GAONA,-58.463118510152796,-34.6154648649628,pharmacy,19
1248,CERRITO,-58.3829702989828,-34.5946905754139,pharmacy,35
1249,AV NAZCA,-58.4824835750924,-34.610379797313,pharmacy,31
1250,AV CORRIENTES,-58.396895889019,-34.6043546737983,pharmacy,4
1251,MONTES DE OCA,-58.3749763121684,-34.637709962729204,pharmacy,32
1252,SALVADOR MARIA DEL CARRIL,-58.49845519843289,-34.5906579121699,pharmacy,16
1253,AV LUIS MARIA CAMPOS,-58.43598164026321,-34.569666298055395,pharmacy,0
1254,AV CRISOLOGO LARRALDE,-58.4799048869876,-34.5552990891922,pharmacy,15
1255,RAUL SCALABRINI ORTIZ,-58.4124824408188,-34.5831546268785,pharmacy,0
1256,AV INDEPENDENCIA,-58.379603642473896,-34.6177856469497,pharmacy,38
1257,AV BELGRANO,-58.4202651324123,-34.6159378776459,pharmacy,12
1258,URUGUAY,-58.387166836708495,-34.597334109866196,pharmacy,44
1259,AV GAONA,-58.4519213392538,-34.6102718273149,pharmacy,11
1260,AV GRAL. MOSCONI,-58.506180306919205,-34.5884738419933,pharmacy,16
1261,MONROE,-58.455536791399204,-34.5555008747509,pharmacy,1
1262,AV DIAZ VELEZ,-58.44388176596729,-34.6081907413397,pharmacy,11
1263,MIGUELETES,-58.4357248537626,-34.5652869973938,pharmacy,0
1264,AV JOSE MARIA MORENO,-58.433939488971504,-34.6265987056412,pharmacy,11
1265,AV CABILDO,-58.465452153132404,-34.5527637745062,pharmacy,2
1266,JOSE HERNANDEZ,-58.4519600360214,-34.564709854251106,pharmacy,1
1267,LIMA,-58.3818305358404,-34.6151571644772,pharmacy,36
1268,MANSILLA,-58.4046494578961,-34.5959200981142,pharmacy,44
1269,HIPOLITO YRIGOYEN,-58.3931901655846,-34.610539384508,pharmacy,4
1270,VIAMONTE,-58.3875933466554,-34.6004454436982,pharmacy,43
1271,CARLOS CALVO,-58.382663986728,-34.6196200140331,pharmacy,38
1272,ARTIGAS,-58.47575677173929,-34.6096994977059,pharmacy,7
1273,AV VARELA,-58.4578042519824,-34.6404476466682,pharmacy,19
1274,AV RIVADAVIA,-58.4184039672758,-34.6108426017922,pharmacy,12
1275,ACOYTE,-58.4379113885006,-34.6150249826612,pharmacy,11
1276,AV CONGRESO,-58.4832998142075,-34.5663559453819,pharmacy,14
1277,AV SAN PEDRITO,-58.4692748457705,-34.630997294759396,pharmacy,19
1278,CARLOS PELLEGRINI,-58.381002781144,-34.599443366103,pharmacy,43
1279,AV CORRIENTES,-58.3934694167924,-34.604637260263,pharmacy,4
1280,PARAGUAY,-58.401731946264,-34.5976767638319,pharmacy,44
1281,AV LIBERTADOR,-58.4651267266375,-34.538984064100106,pharmacy,2
1282,ALVAREZ JONTE,-58.4953143946593,-34.6140461708146,pharmacy,29
1283,TALCAHUANO,-58.3858123862451,-34.597504045959504,pharmacy,35
1284,ALBERDI J. B. AV,-58.49823427247371,-34.6479390955437,pharmacy,18
1285,AV DE LOS INCAS,-58.4786115850275,-34.5847764587238,pharmacy,47
1286,PARAGUAY,-58.429279138764294,-34.580907658719696,pharmacy,0
1287,PERU,-58.373744558647005,-34.6258373493407,pharmacy,41
1288,JUAN B. AMBROSETTI,-58.4386686831993,-34.6101496609954,pharmacy,11
1289,YERBAL,-58.463095959776496,-34.627480995036805,pharmacy,19
1290,AV LACARRA,-58.4734252993192,-34.6462521320054,pharmacy,10
1291,AV J. DE GARAY,-58.371357592884905,-34.624056227775505,pharmacy,41
1292,JONTE,-58.47271447938439,-34.6046766190738,pharmacy,7
1293,HONORIO PUEYRREDON,-58.4478850052761,-34.6048559629604,pharmacy,6
1294,BRASIL,-58.3841928426983,-34.6280207080516,pharmacy,38
1295,NOGOYA,-58.5063512156094,-34.6117078085584,pharmacy,23
1296,JERONIMO SALGUERO,-58.4030146685132,-34.5748251321495,pharmacy,0
1297,AV ELCANO,-58.459636861731205,-34.575300125135605,pharmacy,28
1298,JOSE PEDRO VARELA,-58.5160581336709,-34.610223108571,pharmacy,23
1299,ARENALES,-58.384808894312,-34.5946505235878,pharmacy,35
1300,AV BELGRANO,-58.408524990401,-34.6152742886617,pharmacy,4
1301,IBARROLA,-58.5287937370779,-34.6418698607929,pharmacy,21
1302,MARCELO T. DE ALVEAR,-58.401262630381005,-34.596255830394895,pharmacy,44
1303,AV DIAZ VELEZ,-58.4213735407535,-34.6083987270999,pharmacy,12
1305,AV ENTRE RIOS,-58.3914719565676,-34.6172501586754,pharmacy,36
1306,AV INDEPENDENCIA,-58.385448139174606,-34.6180200330551,pharmacy,38
1307,AV SAN JUAN,-58.39529902321161,-34.6227784892462,pharmacy,5
1308,AV EMILIO CASTRO,-58.512361121486904,-34.6503535761481,pharmacy,21
1309,TENIENTE GENERAL JUAN D PERON,-58.42568857091,-34.605789765591396,pharmacy,12
1310,AV JUAN B. JUSTO,-58.4465343015566,-34.5960707270547,pharmacy,6
1311,CHILAVERT M. CNEL.,-58.477129037491395,-34.6870202955529,pharmacy,34
1312,VENEZUELA,-58.404878993883294,-34.6160770786786,pharmacy,4
1313,JUNCAL,-58.407509780683405,-34.5870330311246,pharmacy,44
1314,AV JUAN B.ALBERDI,-58.4670077723611,-34.632999203668,pharmacy,19
1315,MORENO,-58.4015664917251,-34.6133947036121,pharmacy,4
1316,AV INDEPENDENCIA,-58.394609694264204,-34.6184768109817,pharmacy,5
1317,AZOPARDO,-58.3678140408632,-34.6116712736068,pharmacy,36
1318,BOLIVAR,-58.3728480324801,-34.6175538847065,pharmacy,41
1319,AV CORDOBA,-58.391714524076,-34.5994107972488,pharmacy,44
1320,AV BEIRO FRANCISCO,-58.5152830371338,-34.60818550396,pharmacy,23
1321,LIBERTAD,-58.38444168195189,-34.5958154475391,pharmacy,35
1322,AV LAFUENTE,-58.4400744354172,-34.6615513726118,pharmacy,37
1323,AGUERO,-58.404130108658705,-34.589187264359005,pharmacy,44
1324,AV BELGRANO,-58.391092917504,-34.6139531833236,pharmacy,36
1325,GUEMES,-58.417959650992096,-34.5859360591976,pharmacy,0
1326,AV ENTRE RIOS,-58.3919079002441,-34.614469344313,pharmacy,4
1327,AV BELGRANO,-58.4071265895265,-34.6150921365664,pharmacy,4
1328,LA RIOJA,-58.408848458524105,-34.6136879989462,pharmacy,4
1329,AV CORRIENTES,-58.4239602869091,-34.6030471948874,pharmacy,12
1330,AV CABILDO,-58.467811992311105,-34.5490765487422,pharmacy,2
1331,MONTES DE OCA,-58.37411268493171,-34.6423467976854,pharmacy,32
1332,LARREA,-58.4002946192746,-34.5930841272606,pharmacy,44
1333,AV DEL LIBERTADOR,-58.4028218722224,-34.5819314830044,pharmacy,0
1334,MEDRANO,-58.418045557143294,-34.5897846069485,pharmacy,0
1335,VENTURA DE LA VEGA,-58.4119501215814,-34.6528471666728,pharmacy,46
1336,AV SANTA FE,-58.428650272017,-34.5776589709059,pharmacy,0
1337,AV DIRECTORIO,-58.4866626641292,-34.6468758261543,pharmacy,10
1338,MONROE,-58.4848051647861,-34.5736901053389,pharmacy,14
1339,COMBATE DE LOS POZOS,-58.393563462826606,-34.6100777630177,pharmacy,4
1340,AVELLANEDA,-58.438518265651,-34.6145019118242,pharmacy,11
1341,AV CABILDO,-58.4416594190041,-34.571360389978,pharmacy,0
1342,TENIENTE GENERAL JUAN D PERON,-58.3885902001679,-34.6064038400354,pharmacy,43
1343,CERRITO,-58.382749358138106,-34.5897776772502,pharmacy,35
1344,AV SAENZ,-58.4167995262689,-34.6561723164643,pharmacy,46
1345,AV DE MAYO,-58.3821140609237,-34.6092641245566,pharmacy,36
1346,JORGE NEWBERY,-58.4343005673382,-34.5665037481849,pharmacy,0
1347,JULIAN ALVAREZ,-58.4338704159601,-34.5993636219343,pharmacy,6
1348,AV JUJUY,-58.4055488179784,-34.6115582371306,pharmacy,4
1349,TENIENTE GENERAL JUAN D PERON,-58.396351314198796,-34.6072678626837,pharmacy,4
1350,AV CORDOBA,-58.4044189242589,-34.597897958573604,pharmacy,44
1351,AV RIVADAVIA,-58.4098418213488,-34.6102270779908,pharmacy,4
1352,AV BELGRANO,-58.4098595087714,-34.6150852739684,pharmacy,4
1353,AV LOPE DE VEGA,-58.5283020319067,-34.6114941895535,pharmacy,23
1354,AV RIVADAVIA,-58.4124372782113,-34.6107713365268,pharmacy,4
1355,AV RAUL SCALABRINI ORTIZ,-58.4214593117566,-34.5887738304672,pharmacy,0
1356,PADILLA,-58.4456148866427,-34.5974469202934,pharmacy,6
1357,AV CASEROS,-58.412634144057996,-34.6385167638725,pharmacy,46
1358,AV TRIUNVIRATO,-58.474024206980104,-34.5813305496537,pharmacy,3
1359,SAN MARTIN,-58.3741961146727,-34.6011740366406,pharmacy,43
1360,ECUADOR,-58.4042675576091,-34.594981262532805,pharmacy,44
1361,AV RIVADAVIA,-58.39769742672279,-34.609746990840804,pharmacy,4
1362,PARAGUAY,-58.4010177973365,-34.5981137274505,pharmacy,44
1363,MARCELO T. DE ALVEAR,-58.388608359545294,-34.5973171288411,pharmacy,44
1364,GRAL. URQUIZA,-58.409143050218404,-34.6181575590771,pharmacy,4
1365,MONTES DE OCA,-58.372616764217206,-34.648010821099604,pharmacy,32
1366,AV CASEROS,-58.373154974346505,-34.6269450980428,pharmacy,32
1367,PERU,-58.3745231675029,-34.6128221159312,pharmacy,36
1368,"MONTES DE OCA, MANUEL AV.",-58.37688556845329,-34.6309915440989,pharmacy,32
1369,RIVADAVIA AV.,-58.3935808200545,-34.6091114999275,pharmacy,4
1370,PASTEUR,-58.39933829862039,-34.6095106784025,pharmacy,4
1371,"YRIGOYEN, HIPOLITO",-58.4054187848019,-34.611418344841105,pharmacy,4
1372,CASEROS AV.,-58.399943796701606,-34.6359586941044,pharmacy,40
1373,Monroe,-58.479075542494606,-34.5702550371267,pharmacy,14
1374,Melian,-58.4716325037057,-34.5653953638243,pharmacy,42
1375,Monroe,-58.4629333060966,-34.5598825434449,pharmacy,1
0,ALPI - INSTITUTO DE REHABILITACION MARCELO FITTE - Sede Central,-58.4173334662782,-34.5916299900033,private hospital,0
1,CAMI - MEDICINA DEL TRABAJO,-58.420476072707004,-34.612883734052,private hospital,12
2,CEMIC - Sede Las Heras,-58.4020386885894,-34.5836525445924,private hospital,44
3,CEMIC - Sede Saavedra,-58.4952169781437,-34.5569834885832,private hospital,15
4,CENTRO GALLEGO DE BUENOS AIRES,-58.3972987834349,-34.6139834471649,private hospital,4
5,CENTRO MEDICO SARAZA,-58.4249465318604,-34.6366468796802,private hospital,9
6,CLINICA ADVENTISTA BELGRANO,-58.4683324617794,-34.5745638740179,private hospital,3
